$GPRMC,121426.00,A,5543.71125,N,03736.59876,E,0.766,79.33,110323,,,A*54
$GPVTG,79.33,T,,M,0.766,N,1.418,K,A*08
$GPGGA,121426.00,5543.71125,N,03736.59876,E,1,04,5.22,170.9,M,13.3,M,,*52
$GPGSA,A,3,12,20,11,05,,,,,,,,,5.82,5.22,2.57*0C
$GPGSV,6,1,21,01,,,34,02,29,196,,03,,,30,04,,,34*4F
$GPGSV,6,2,21,05,06,137,32,06,,,37,07,,,26,09,,,29*4A
$GPGSV,6,3,21,10,,,30,11,53,080,46,12,54,133,43,13,,,28*7D
$GPGSV,6,4,21,15,,,27,16,,,24,17,,,32,19,,,32*76
$GPGSV,6,5,21,20,24,112,35,27,,,25,29,,,31,30,,,30*42
$GPGSV,6,6,21,40,25,159,37*40
$GPGLL,5543.71125,N,03736.59876,E,121426.00,A,A*68
$GPRMC,121427.00,A,5543.71121,N,03736.59871,E,0.417,,110323,,,A*73
$GPVTG,,T,,M,0.417,N,0.773,K,A*22
$GPGGA,121427.00,5543.71121,N,03736.59871,E,1,04,5.22,170.8,M,13.3,M,,*51
$GPGSA,A,3,12,20,11,05,,,,,,,,,5.82,5.22,2.57*0C
$GPGSV,5,1,20,01,,,34,02,29,196,,03,,,30,04,,,36*4F
$GPGSV,5,2,20,05,06,137,32,06,,,36,07,,,34,09,,,30*42
$GPGSV,5,3,20,10,,,30,11,53,080,45,12,54,133,42,13,,,28*7D
$GPGSV,5,4,20,16,,,23,17,,,31,19,,,31,20,24,112,34*43
$GPGSV,5,5,20,27,,,26,29,,,30,30,,,30,40,25,159,37*48
$GPGLL,5543.71121,N,03736.59871,E,121427.00,A,A*6A
$GPRMC,121428.00,A,5543.71119,N,03736.59849,E,0.483,,110323,,,A*71
$GPVTG,,T,,M,0.483,N,0.895,K,A*28
$GPGGA,121428.00,5543.71119,N,03736.59849,E,1,04,5.22,170.6,M,13.3,M,,*50
$GPGSA,A,3,12,20,11,05,,,,,,,,,5.82,5.22,2.57*0C
$GPGSV,6,1,21,01,,,33,02,29,196,,03,,,17,04,,,35*4C
$GPGSV,6,2,21,05,06,137,32,06,,,35,07,,,23,09,,,18*4F
$GPGSV,6,3,21,10,,,19,11,53,080,45,12,54,133,42,13,,,28*74
$GPGSV,6,4,21,15,,,31,16,,,20,17,,,20,19,,,30*74
$GPGSV,6,5,21,20,24,112,34,27,,,25,29,,,19,30,,,19*42
$GPGSV,6,6,21,40,25,159,37*40
$GPGLL,5543.71119,N,03736.59849,E,121428.00,A,A*65
$GPRMC,121429.00,A,5543.71117,N,03736.59817,E,0.457,,110323,,,A*7C
$GPVTG,,T,,M,0.457,N,0.847,K,A*2E
$GPGGA,121429.00,5543.71117,N,03736.59817,E,1,04,5.22,170.5,M,13.3,M,,*57
$GPGSA,A,3,12,20,11,05,,,,,,,,,5.82,5.22,2.57*0C
$GPGSV,4,1,15,01,,,14,02,29,196,,04,,,09,05,06,137,34*77
$GPGSV,4,2,15,06,,,07,07,,,24,11,53,080,46,12,54,133,43*73
$GPGSV,4,3,15,13,,,10,15,,,21,17,,,19,19,,,18*71
$GPGSV,4,4,15,20,24,112,35,27,,,20,40,25,159,38*7F
$GPGLL,5543.71117,N,03736.59817,E,121429.00,A,A*61
$GPRMC,121430.00,A,5543.71118,N,03736.59775,E,0.354,,110323,,,A*74
$GPVTG,,T,,M,0.354,N,0.656,K,A*24
$GPGGA,121430.00,5543.71118,N,03736.59775,E,1,04,5.22,170.3,M,13.3,M,,*5D
$GPGSA,A,3,12,20,11,05,,,,,,,,,5.82,5.22,2.57*0C
$GPGSV,3,1,09,02,29,196,,05,06,137,36,07,,,27,11,53,080,48*46
$GPGSV,3,2,09,12,54,133,45,17,,,27,20,24,112,37,27,,,27*72
$GPGSV,3,3,09,40,25,159,40*4A
$GPGLL,5543.71118,N,03736.59775,E,121430.00,A,A*6D
$GPRMC,121431.00,A,5543.71117,N,03736.59759,E,0.081,,110323,,,A*7F
$GPVTG,,T,,M,0.081,N,0.150,K,A*2E
$GPGGA,121431.00,5543.71117,N,03736.59759,E,1,04,5.22,170.2,M,13.3,M,,*5C
$GPGSA,A,3,12,20,11,05,,,,,,,,,5.82,5.22,2.57*0C
$GPGSV,4,1,13,02,29,196,21,03,,,24,05,06,136,37,07,,,28*71
$GPGSV,4,2,13,09,,,23,11,53,080,48,12,54,133,45,17,,,27*76
$GPGSV,4,3,13,20,24,112,38,22,,,27,27,,,27,29,,,24*49
$GPGSV,4,4,13,40,25,159,40*41
$GPGLL,5543.71117,N,03736.59759,E,121431.00,A,A*6D
$GPRMC,121432.00,A,5543.71117,N,03736.59710,E,0.510,,110323,,,A*7C
$GPVTG,,T,,M,0.510,N,0.945,K,A*2F
$GPGGA,121432.00,5543.71117,N,03736.59710,E,1,04,5.22,170.0,M,13.3,M,,*50
$GPGSA,A,3,12,20,11,05,,,,,,,,,5.82,5.22,2.57*0C
$GPGSV,5,1,19,01,,,31,02,29,196,,03,,,19,05,06,136,37*79
$GPGSV,5,2,19,06,,,32,07,,,29,09,,,18,11,53,080,48*4F
$GPGSV,5,3,19,12,54,133,45,13,,,32,15,,,30,19,,,34*4E
$GPGSV,5,4,19,20,24,112,38,22,,,26,26,,,33,27,,,26*4C
$GPGSV,5,5,19,29,,,19,32,,,30,40,25,159,40*4A
$GPGLL,5543.71117,N,03736.59710,E,121432.00,A,A*63
$GPRMC,121433.00,A,5543.71116,N,03736.59662,E,0.596,,110323,,,A*76
$GPVTG,,T,,M,0.596,N,1.103,K,A*2A
$GPGGA,121433.00,5543.71116,N,03736.59662,E,1,04,5.23,169.8,M,13.3,M,,*55
$GPGSA,A,3,12,20,11,05,,,,,,,,,5.82,5.23,2.57*0D
$GPGSV,5,1,17,01,,,30,02,29,196,,04,,,26,05,06,136,37*7D
$GPGSV,5,2,17,06,,,31,07,,,29,11,53,080,48,12,54,133,45*70
$GPGSV,5,3,17,13,,,30,14,,,28,15,,,28,19,,,33*71
$GPGSV,5,4,17,20,24,112,37,22,,,25,26,,,32,32,,,24*49
$GPGSV,5,5,17,40,25,159,41*44
$GPGLL,5543.71116,N,03736.59662,E,121433.00,A,A*67
$GPRMC,121434.00,A,5543.71114,N,03736.59613,E,0.333,,110323,,,A*7C
$GPVTG,,T,,M,0.333,N,0.618,K,A*2F
$GPGGA,121434.00,5543.71114,N,03736.59613,E,1,04,5.23,169.7,M,13.3,M,,*59
$GPGSA,A,3,20,11,12,05,,,,,,,,,5.82,5.23,2.57*0D
$GPGSV,5,1,20,01,,,29,02,29,196,,04,,,25,05,06,136,36*73
$GPGSV,5,2,20,06,,,29,07,,,28,11,53,080,47,12,54,133,44*72
$GPGSV,5,3,20,13,,,25,14,,,26,15,,,24,19,,,32*72
$GPGSV,5,4,20,20,24,112,36,21,,,26,22,,,29,26,,,31*43
$GPGSV,5,5,20,27,,,32,29,,,24,32,,,22,40,25,159,39*47
$GPGLL,5543.71114,N,03736.59613,E,121434.00,A,A*64
$GPRMC,121435.00,A,5543.71112,N,03736.59594,E,0.451,,110323,,,A*74
$GPVTG,,T,,M,0.451,N,0.834,K,A*2C
$GPGGA,121435.00,5543.71112,N,03736.59594,E,1,04,5.23,169.6,M,13.3,M,,*53
$GPGSA,A,3,20,11,12,05,,,,,,,,,5.83,5.23,2.57*0C
$GPGSV,5,1,20,01,,,28,02,29,196,,04,,,24,05,06,136,35*70
$GPGSV,5,2,20,06,,,28,07,,,27,09,,,29,11,53,080,47*4D
$GPGSV,5,3,20,12,54,133,43,13,,,24,14,,,25,19,,,32*46
$GPGSV,5,4,20,20,24,112,36,21,,,24,22,,,25,26,,,30*4C
$GPGSV,5,5,20,27,,,26,29,,,19,32,,,18,40,25,159,39*45
$GPGLL,5543.71112,N,03736.59594,E,121435.00,A,A*6F
$GPRMC,121436.00,A,5543.71112,N,03736.59566,E,0.734,354.49,110323,,,A*6B
$GPVTG,354.49,T,,M,0.734,N,1.359,K,A*3C
$GPGGA,121436.00,5543.71112,N,03736.59566,E,1,04,5.23,169.4,M,13.3,M,,*5F
$GPGSA,A,3,20,11,12,05,,,,,,,,,5.83,5.23,2.57*0C
$GPGSV,5,1,19,01,,,28,02,29,196,,04,,,35,05,06,136,36*79
$GPGSV,5,2,19,06,,,27,07,,,27,09,,,27,11,53,080,46*47
$GPGSV,5,3,19,12,54,133,43,14,,,22,15,,,38,19,,,31*43
$GPGSV,5,4,19,20,24,112,35,21,,,24,22,,,21,26,,,31*40
$GPGSV,5,5,19,27,,,28,29,,,38,40,25,159,39*4A
$GPGLL,5543.71112,N,03736.59566,E,121436.00,A,A*61
$GPRMC,121437.00,A,5543.71112,N,03736.59538,E,0.909,310.68,110323,,,A*62
$GPVTG,310.68,T,,M,0.909,N,1.684,K,A*3A
$GPGGA,121437.00,5543.71112,N,03736.59538,E,1,04,5.23,169.3,M,13.3,M,,*52
$GPGSA,A,3,20,11,12,05,,,,,,,,,5.83,5.23,2.57*0C
$GPGSV,5,1,20,01,,,27,02,29,196,,05,06,136,35,06,,,27*7E
$GPGSV,5,2,20,07,,,26,09,,,25,10,,,37,11,53,080,46*48
$GPGSV,5,3,20,12,54,133,42,13,,,27,14,,,34,15,,,37*4D
$GPGSV,5,4,20,19,,,30,20,24,112,35,21,,,22,22,,,22*42
$GPGSV,5,5,20,26,,,30,27,,,28,29,,,36,40,25,159,38*48
$GPGLL,5543.71112,N,03736.59538,E,121437.00,A,A*6B
$GPRMC,121438.00,A,5543.71114,N,03736.59505,E,0.335,,110323,,,A*72
$GPVTG,,T,,M,0.335,N,0.621,K,A*23
$GPGGA,121438.00,5543.71114,N,03736.59505,E,1,04,5.23,169.3,M,13.3,M,,*55
$GPGSA,A,3,20,11,12,05,,,,,,,,,5.83,5.23,2.57*0C
$GPGSV,6,1,21,01,,,27,02,29,196,,04,,,36,05,06,136,35*7E
$GPGSV,6,2,21,06,,,26,07,,,26,09,,,21,10,,,37*70
$GPGSV,6,3,21,11,53,080,46,12,54,133,42,13,,,25,14,,,34*71
$GPGSV,6,4,21,15,,,37,19,,,31,20,24,112,35,21,,,20*43
$GPGSV,6,5,21,22,,,24,26,,,31,27,,,28,29,,,36*78
$GPGSV,6,6,21,40,25,159,38*4F
$GPGLL,5543.71114,N,03736.59505,E,121438.00,A,A*6C
$GPRMC,121439.00,A,5543.71114,N,03736.59485,E,0.059,,110323,,,A*73
$GPVTG,,T,,M,0.059,N,0.109,K,A*27
$GPGGA,121439.00,5543.71114,N,03736.59485,E,1,04,5.23,169.2,M,13.3,M,,*5C
$GPGSA,A,3,20,11,12,05,,,,,,,,,5.83,5.23,2.58*03
$GPGSV,6,1,21,01,,,27,02,29,196,,04,,,36,05,06,136,35*7E
$GPGSV,6,2,21,06,,,26,07,,,26,09,,,37,10,,,37*77
$GPGSV,6,3,21,11,53,080,46,12,54,133,42,13,,,32,14,,,34*77
$GPGSV,6,4,21,15,,,36,19,,,31,20,24,112,35,21,,,17*46
$GPGSV,6,5,21,22,,,34,26,,,30,27,,,28,29,,,35*7B
$GPGSV,6,6,21,40,25,159,38*4F
$GPGLL,5543.71114,N,03736.59485,E,121439.00,A,A*64
$GPRMC,121440.00,A,5543.71113,N,03736.59471,E,0.542,,110323,,,A*7E
$GPVTG,,T,,M,0.542,N,1.004,K,A*25
$GPGGA,121440.00,5543.71113,N,03736.59471,E,1,04,5.23,169.1,M,13.3,M,,*5D
$GPGSA,A,3,20,11,12,05,,,,,,,,,5.83,5.23,2.58*03
$GPGSV,6,1,21,01,,,27,02,29,196,,04,,,36,05,06,136,34*7F
$GPGSV,6,2,21,06,,,38,07,,,26,09,,,38,10,,,37*77
$GPGSV,6,3,21,11,53,080,46,12,54,133,42,13,,,24,14,,,34*70
$GPGSV,6,4,21,15,,,37,19,,,31,20,24,112,35,21,,,34*46
$GPGSV,6,5,21,22,,,33,26,,,30,27,,,29,29,,,35*7D
$GPGSV,6,6,21,40,25,159,38*4F
$GPGLL,5543.71113,N,03736.59471,E,121440.00,A,A*66
$GPRMC,121441.00,A,5543.71115,N,03736.59448,E,0.940,294.86,110323,,,A*62
$GPVTG,294.86,T,,M,0.940,N,1.741,K,A*32
$GPGGA,121441.00,5543.71115,N,03736.59448,E,1,04,5.23,169.1,M,13.3,M,,*50
$GPGSA,A,3,20,11,12,05,,,,,,,,,5.83,5.23,2.58*03
$GPGSV,6,1,21,01,,,27,02,29,196,,04,,,36,05,06,136,34*7F
$GPGSV,6,2,21,06,,,38,07,,,26,09,,,38,10,,,37*77
$GPGSV,6,3,21,11,53,080,45,12,54,133,42,13,,,24,14,,,34*73
$GPGSV,6,4,21,15,,,37,19,,,31,20,24,112,35,21,,,34*46
$GPGSV,6,5,21,22,,,33,26,,,30,27,,,29,29,,,35*7D
$GPGSV,6,6,21,40,25,159,38*4F
$GPGLL,5543.71115,N,03736.59448,E,121441.00,A,A*6B
$GPRMC,121442.00,A,5543.71117,N,03736.59413,E,0.482,,110323,,,A*71
$GPVTG,,T,,M,0.482,N,0.893,K,A*2F
$GPGGA,121442.00,5543.71117,N,03736.59413,E,1,04,5.23,169.0,M,13.3,M,,*5E
$GPGSA,A,3,20,11,12,05,,,,,,,,,5.83,5.23,2.58*03
$GPGSV,6,1,21,01,,,27,02,29,196,,04,,,36,05,06,136,34*7F
$GPGSV,6,2,21,06,,,37,07,,,26,09,,,38,10,,,37*78
$GPGSV,6,3,21,11,53,080,45,12,54,133,42,13,,,34,14,,,34*72
$GPGSV,6,4,21,15,,,37,19,,,31,20,24,112,35,21,,,34*46
$GPGSV,6,5,21,22,,,33,26,,,30,27,,,29,29,,,36*7E
$GPGSV,6,6,21,40,25,159,38*4F
$GPGLL,5543.71117,N,03736.59413,E,121442.00,A,A*64
$GPRMC,121443.00,A,5543.71119,N,03736.59394,E,0.132,,110323,,,A*78
$GPVTG,,T,,M,0.132,N,0.244,K,A*21
$GPGGA,121443.00,5543.71119,N,03736.59394,E,1,04,5.23,169.0,M,13.3,M,,*59
$GPGSA,A,3,20,11,12,05,,,,,,,,,5.83,5.23,2.58*03
$GPGSV,6,1,21,01,,,27,02,29,196,,04,,,36,05,06,136,34*7F
$GPGSV,6,2,21,06,,,37,07,,,25,09,,,37,10,,,37*74
$GPGSV,6,3,21,11,53,080,45,12,54,133,42,13,,,34,14,,,33*75
$GPGSV,6,4,21,15,,,36,19,,,31,20,24,112,35,21,,,33*40
$GPGSV,6,5,21,22,,,32,26,,,30,27,,,29,29,,,35*7C
$GPGSV,6,6,21,40,25,159,38*4F
$GPGLL,5543.71119,N,03736.59394,E,121443.00,A,A*63
$GPRMC,121444.00,A,5543.71119,N,03736.59386,E,0.157,,110323,,,A*7F
$GPVTG,,T,,M,0.157,N,0.292,K,A*29
$GPGGA,121444.00,5543.71119,N,03736.59386,E,1,04,5.23,168.9,M,13.3,M,,*55
$GPGSA,A,3,20,11,12,05,,,,,,,,,5.83,5.23,2.58*03
$GPGSV,6,1,21,01,,,27,02,29,196,,04,,,36,05,06,136,34*7F
$GPGSV,6,2,21,06,,,37,07,,,26,09,,,37,10,,,36*76
$GPGSV,6,3,21,11,53,080,45,12,54,133,42,13,,,33,14,,,33*72
$GPGSV,6,4,21,15,,,37,19,,,31,20,24,112,35,21,,,33*41
$GPGSV,6,5,21,22,,,31,26,,,30,27,,,29,29,,,36*7C
$GPGSV,6,6,21,40,25,159,38*4F
$GPGLL,5543.71119,N,03736.59386,E,121444.00,A,A*67
$GPRMC,121445.00,A,5543.71118,N,03736.59381,E,0.484,,110323,,,A*73
$GPVTG,,T,,M,0.484,N,0.896,K,A*2C
$GPGGA,121445.00,5543.71118,N,03736.59381,E,1,04,5.23,169.0,M,13.3,M,,*5A
$GPGSA,A,3,20,11,12,05,,,,,,,,,5.83,5.23,2.58*03
$GPGSV,6,1,21,01,,,26,02,29,196,,04,,,36,05,06,136,33*79
$GPGSV,6,2,21,06,,,37,07,,,26,09,,,38,10,,,36*79
$GPGSV,6,3,21,11,53,080,45,12,54,133,42,13,,,34,14,,,33*75
$GPGSV,6,4,21,15,,,37,19,,,31,20,24,112,35,21,,,33*41
$GPGSV,6,5,21,22,,,31,26,,,30,27,,,29,29,,,36*7C
$GPGSV,6,6,21,40,25,159,38*4F
$GPGLL,5543.71118,N,03736.59381,E,121445.00,A,A*60
$GPRMC,121446.00,A,5543.71118,N,03736.59375,E,0.180,,110323,,,A*7A
$GPVTG,,T,,M,0.180,N,0.333,K,A*29
$GPGGA,121446.00,5543.71118,N,03736.59375,E,1,04,5.23,169.0,M,13.3,M,,*52
$GPGSA,A,3,20,11,12,05,,,,,,,,,5.83,5.23,2.58*03
$GPGSV,6,1,21,01,,,26,02,29,196,,04,,,36,05,06,136,33*79
$GPGSV,6,2,21,06,,,37,07,,,26,09,,,37,10,,,37*77
$GPGSV,6,3,21,11,53,080,45,12,54,133,42,13,,,34,14,,,34*72
$GPGSV,6,4,21,15,,,37,19,,,31,20,24,112,34,21,,,34*47
$GPGSV,6,5,21,22,,,31,26,,,30,27,,,28,29,,,36*7D
$GPGSV,6,6,21,40,25,159,38*4F
$GPGLL,5543.71118,N,03736.59375,E,121446.00,A,A*68
$GPRMC,121447.00,A,5543.71118,N,03736.59375,E,0.240,,110323,,,A*74
$GPVTG,,T,,M,0.240,N,0.444,K,A*21
$GPGGA,121447.00,5543.71118,N,03736.59375,E,1,04,5.23,169.0,M,13.3,M,,*53
$GPGSA,A,3,20,11,12,05,,,,,,,,,5.83,5.23,2.58*03
$GPGSV,6,1,21,01,,,36,02,29,196,,04,,,36,05,06,136,33*78
$GPGSV,6,2,21,06,,,37,07,,,26,09,,,38,10,,,37*78
$GPGSV,6,3,21,11,53,080,45,12,54,133,42,13,,,33,14,,,34*75
$GPGSV,6,4,21,15,,,37,19,,,31,20,24,112,34,21,,,34*47
$GPGSV,6,5,21,22,,,31,26,,,30,27,,,29,29,,,36*7C
$GPGSV,6,6,21,40,25,159,38*4F
$GPGLL,5543.71118,N,03736.59375,E,121447.00,A,A*69
$GPRMC,121448.00,A,5543.71118,N,03736.59376,E,0.347,,110323,,,A*7E
$GPVTG,,T,,M,0.347,N,0.642,K,A*23
$GPGGA,121448.00,5543.71118,N,03736.59376,E,1,04,5.23,169.0,M,13.3,M,,*5F
$GPGSA,A,3,20,11,12,05,,,,,,,,,5.84,5.23,2.58*04
$GPGSV,6,1,21,01,,,37,02,29,196,,04,,,35,05,06,136,32*7B
$GPGSV,6,2,21,06,,,37,07,,,27,09,,,37,10,,,37*76
$GPGSV,6,3,21,11,53,080,45,12,54,133,42,13,,,33,14,,,34*75
$GPGSV,6,4,21,15,,,37,19,,,31,20,24,112,34,21,,,34*47
$GPGSV,6,5,21,22,,,31,26,,,29,27,,,29,29,,,36*74
$GPGSV,6,6,21,40,25,159,38*4F
$GPGLL,5543.71118,N,03736.59376,E,121448.00,A,A*65
$GPRMC,121449.00,A,5543.71117,N,03736.59390,E,0.465,,110323,,,A*7F
$GPVTG,,T,,M,0.465,N,0.861,K,A*2B
$GPGGA,121449.00,5543.71117,N,03736.59390,E,1,04,5.24,169.1,M,13.3,M,,*5F
$GPGSA,A,3,20,11,12,05,,,,,,,,,5.84,5.24,2.58*03
$GPGSV,6,1,21,01,,,36,02,29,196,,04,,,35,05,06,136,32*7A
$GPGSV,6,2,21,06,,,37,07,,,28,09,,,37,10,,,37*79
$GPGSV,6,3,21,11,53,080,45,12,54,133,42,13,,,33,14,,,33*72
$GPGSV,6,4,21,15,,,37,19,,,31,20,24,112,34,21,,,34*47
$GPGSV,6,5,21,22,,,32,26,,,29,27,,,29,29,,,36*77
$GPGSV,6,6,21,40,25,159,37*40
$GPGLL,5543.71117,N,03736.59390,E,121449.00,A,A*63
$GPRMC,121450.00,A,5543.71115,N,03736.59410,E,0.480,,110323,,,A*71
$GPVTG,,T,,M,0.480,N,0.890,K,A*2E
$GPGGA,121450.00,5543.71115,N,03736.59410,E,1,04,5.24,169.1,M,13.3,M,,*5A
$GPGSA,A,3,20,11,12,05,,,,,,,,,5.84,5.24,2.58*03
$GPGSV,6,1,21,01,,,35,02,29,196,,04,,,34,05,06,136,32*78
$GPGSV,6,2,21,06,,,36,07,,,26,09,,,36,10,,,35*75
$GPGSV,6,3,21,11,53,080,44,12,54,133,42,13,,,33,14,,,33*73
$GPGSV,6,4,21,15,,,36,19,,,31,20,24,112,33,21,,,32*47
$GPGSV,6,5,21,22,,,30,26,,,29,27,,,28,29,,,35*77
$GPGSV,6,6,21,40,25,159,37*40
$GPGLL,5543.71115,N,03736.59410,E,121450.00,A,A*66
$GPRMC,121451.00,A,5543.71115,N,03736.59427,E,0.309,,110323,,,A*72
$GPVTG,,T,,M,0.309,N,0.572,K,A*29
$GPGGA,121451.00,5543.71115,N,03736.59427,E,1,04,5.24,169.2,M,13.3,M,,*5C
$GPGSA,A,3,20,11,12,05,,,,,,,,,5.84,5.24,2.58*03
$GPGSV,6,1,21,01,,,35,02,29,196,,04,,,35,05,06,136,32*79
$GPGSV,6,2,21,06,,,36,07,,,26,09,,,36,10,,,36*76
$GPGSV,6,3,21,11,53,080,44,12,54,133,42,13,,,33,14,,,33*73
$GPGSV,6,4,21,15,,,36,19,,,31,20,24,112,33,21,,,32*47
$GPGSV,6,5,21,22,,,30,26,,,29,27,,,29,29,,,35*76
$GPGSV,6,6,21,40,25,159,37*40
$GPGLL,5543.71115,N,03736.59427,E,121451.00,A,A*63
$GPRMC,121452.00,A,5543.71115,N,03736.59436,E,0.293,,110323,,,A*73
$GPVTG,,T,,M,0.293,N,0.543,K,A*29
$GPGGA,121452.00,5543.71115,N,03736.59436,E,1,04,5.24,169.2,M,13.3,M,,*5F
$GPGSA,A,3,20,11,12,05,,,,,,,,,5.84,5.24,2.58*03
$GPGSV,6,1,21,01,,,36,02,29,196,,04,,,35,05,06,136,32*7A
$GPGSV,6,2,21,06,,,36,07,,,26,09,,,37,10,,,36*77
$GPGSV,6,3,21,11,53,080,44,12,54,133,42,13,,,33,14,,,33*73
$GPGSV,6,4,21,15,,,36,19,,,31,20,24,112,34,21,,,32*40
$GPGSV,6,5,21,22,,,30,26,,,29,27,,,29,29,,,35*76
$GPGSV,6,6,21,40,25,159,37*40
$GPGLL,5543.71115,N,03736.59436,E,121452.00,A,A*60
$GPRMC,121453.00,A,5543.71115,N,03736.59442,E,0.348,,110323,,,A*76
$GPVTG,,T,,M,0.348,N,0.645,K,A*2B
$GPGGA,121453.00,5543.71115,N,03736.59442,E,1,04,5.24,169.3,M,13.3,M,,*5C
$GPGSA,A,3,20,11,12,05,,,,,,,,,5.84,5.24,2.58*03
$GPGSV,6,1,21,01,,,36,02,29,196,,04,,,35,05,06,136,32*7A
$GPGSV,6,2,21,06,,,37,07,,,27,09,,,37,10,,,36*77
$GPGSV,6,3,21,11,53,080,45,12,54,133,43,13,,,33,14,,,34*74
$GPGSV,6,4,21,15,,,37,19,,,31,20,24,112,34,21,,,33*40
$GPGSV,6,5,21,22,,,31,26,,,29,27,,,29,29,,,36*74
$GPGSV,6,6,21,40,25,159,38*4F
$GPGLL,5543.71115,N,03736.59442,E,121453.00,A,A*62
$GPRMC,121454.00,A,5543.71115,N,03736.59444,E,0.332,,110323,,,A*7A
$GPVTG,,T,,M,0.332,N,0.616,K,A*20
$GPGGA,121454.00,5543.71115,N,03736.59444,E,1,04,5.24,169.3,M,13.3,M,,*5D
$GPGSA,A,3,20,11,12,05,,,,,,,,,5.84,5.24,2.58*03
$GPGSV,6,1,21,01,,,35,02,29,196,,04,,,34,05,06,136,31*7B
$GPGSV,6,2,21,06,,,36,07,,,26,09,,,36,10,,,34*74
$GPGSV,6,3,21,11,53,080,44,12,54,133,42,13,,,31,14,,,34*76
$GPGSV,6,4,21,15,,,36,19,,,30,20,24,112,33,21,,,31*45
$GPGSV,6,5,21,22,,,31,26,,,29,27,,,28,29,,,35*76
$GPGSV,6,6,21,40,25,159,37*40
$GPGLL,5543.71115,N,03736.59444,E,121454.00,A,A*63
$GPRMC,121455.00,A,5543.71115,N,03736.59443,E,0.219,,110323,,,A*74
$GPVTG,,T,,M,0.219,N,0.405,K,A*28
$GPGGA,121455.00,5543.71115,N,03736.59443,E,1,04,5.24,169.3,M,13.3,M,,*5B
$GPGSA,A,3,20,11,12,05,,,,,,,,,5.84,5.24,2.58*03
$GPGSV,6,1,21,01,,,36,02,29,196,25,04,,,35,05,06,136,32*7D
$GPGSV,6,2,21,06,,,36,07,,,26,09,,,36,10,,,35*75
$GPGSV,6,3,21,11,53,080,44,12,54,133,42,13,,,33,14,,,33*73
$GPGSV,6,4,21,15,,,36,19,,,31,20,24,112,34,21,,,31*43
$GPGSV,6,5,21,22,,,30,26,,,29,27,,,28,29,,,36*74
$GPGSV,6,6,21,40,25,159,37*40
$GPGLL,5543.71115,N,03736.59443,E,121455.00,A,A*65
$GPRMC,121456.00,A,5543.71114,N,03736.59451,E,0.289,,110323,,,A*7C
$GPVTG,,T,,M,0.289,N,0.535,K,A*23
$GPGGA,121456.00,5543.71114,N,03736.59451,E,1,04,5.24,169.3,M,13.3,M,,*5A
$GPGSA,A,3,20,11,12,05,,,,,,,,,5.84,5.24,2.58*03
$GPGSV,6,1,21,01,,,36,02,29,196,24,04,,,35,05,06,136,32*7C
$GPGSV,6,2,21,06,,,36,07,,,26,09,,,37,10,,,35*74
$GPGSV,6,3,21,11,53,080,44,12,54,133,42,13,,,33,14,,,33*73
$GPGSV,6,4,21,15,,,36,19,,,31,20,24,112,34,21,,,32*40
$GPGSV,6,5,21,22,,,27,26,,,29,27,,,28,29,,,35*71
$GPGSV,6,6,21,40,25,159,38*4F
$GPGLL,5543.71114,N,03736.59451,E,121456.00,A,A*64
$GPRMC,121457.00,A,5543.71114,N,03736.59448,E,0.678,,110323,,,A*7F
$GPVTG,,T,,M,0.678,N,1.255,K,A*29
$GPGGA,121457.00,5543.71114,N,03736.59448,E,1,04,5.24,169.3,M,13.3,M,,*53
$GPGSA,A,3,20,11,12,05,,,,,,,,,5.84,5.24,2.58*03
$GPGSV,6,1,21,01,,,36,02,29,196,,04,,,35,05,06,136,32*7A
$GPGSV,6,2,21,06,,,35,07,,,26,09,,,37,10,,,35*77
$GPGSV,6,3,21,11,53,080,44,12,54,133,42,13,,,33,14,,,32*72
$GPGSV,6,4,21,15,,,37,19,,,30,20,24,112,33,21,,,31*44
$GPGSV,6,5,21,22,,,27,26,,,29,27,,,29,29,,,35*70
$GPGSV,6,6,21,40,25,159,38*4F
$GPGLL,5543.71114,N,03736.59448,E,121457.00,A,A*6D
$GPRMC,121458.00,A,5543.71112,N,03736.59460,E,0.175,,110323,,,A*76
$GPVTG,,T,,M,0.175,N,0.323,K,A*22
$GPGGA,121458.00,5543.71112,N,03736.59460,E,1,04,5.24,169.3,M,13.3,M,,*50
$GPGSA,A,3,20,11,12,05,,,,,,,,,5.84,5.24,2.58*03
$GPGSV,5,1,20,01,,,35,02,29,196,24,04,,,35,05,06,136,31*7E
$GPGSV,5,2,20,06,,,36,07,,,26,09,,,37,10,,,36*75
$GPGSV,5,3,20,11,53,080,44,12,54,133,42,13,,,32,14,,,33*70
$GPGSV,5,4,20,15,,,36,19,,,30,20,24,112,33,21,,,31*47
$GPGSV,5,5,20,26,,,30,27,,,29,29,,,35,40,25,159,38*4A
$GPGLL,5543.71112,N,03736.59460,E,121458.00,A,A*6E
$GPRMC,121459.00,A,5543.71110,N,03736.59470,E,0.644,,110323,,,A*71
$GPVTG,,T,,M,0.644,N,1.193,K,A*2F
$GPGGA,121459.00,5543.71110,N,03736.59470,E,1,04,5.24,169.3,M,13.3,M,,*52
$GPGSA,A,3,20,11,12,05,,,,,,,,,5.84,5.24,2.58*03
$GPGSV,6,1,21,01,,,35,02,29,196,,04,,,35,05,06,136,32*79
$GPGSV,6,2,21,06,,,36,07,,,26,09,,,37,10,,,35*74
$GPGSV,6,3,21,11,53,080,44,12,54,133,42,13,,,32,14,,,33*72
$GPGSV,6,4,21,15,,,36,19,,,30,20,24,112,34,21,,,32*41
$GPGSV,6,5,21,22,,,33,26,,,30,27,,,29,29,,,35*7D
$GPGSV,6,6,21,40,25,159,38*4F
$GPGLL,5543.71110,N,03736.59470,E,121459.00,A,A*6C
$GPRMC,121500.00,A,5543.71109,N,03736.59470,E,0.762,287.98,110323,,,A*63
$GPVTG,287.98,T,,M,0.762,N,1.411,K,A*37
$GPGGA,121500.00,5543.71109,N,03736.59470,E,1,04,5.24,169.3,M,13.3,M,,*57
$GPGSA,A,3,20,11,12,05,,,,,,,,,5.84,5.24,2.58*03
$GPGSV,5,1,20,01,,,35,02,29,196,,04,,,35,05,06,136,32*7B
$GPGSV,5,2,20,06,,,37,07,,,25,09,,,37,11,53,080,44*4D
$GPGSV,5,3,20,12,54,133,42,13,,,33,14,,,33,15,,,36*4E
$GPGSV,5,4,20,19,,,31,20,24,112,34,21,,,32,22,,,33*43
$GPGSV,5,5,20,26,,,30,27,,,29,29,,,35,40,25,159,38*4A
$GPGLL,5543.71109,N,03736.59470,E,121500.00,A,A*69
$GPRMC,121501.00,A,5543.71109,N,03736.59463,E,0.441,,110323,,,A*70
$GPVTG,,T,,M,0.441,N,0.817,K,A*2C
$GPGGA,121501.00,5543.71109,N,03736.59463,E,1,04,5.24,169.3,M,13.3,M,,*54
$GPGSA,A,3,20,11,12,05,,,,,,,,,5.84,5.24,2.58*03
$GPGSV,6,1,21,01,,,34,02,29,196,,04,,,34,05,06,136,31*7A
$GPGSV,6,2,21,06,,,38,07,,,25,09,,,37,10,,,36*7A
$GPGSV,6,3,21,11,53,080,44,12,54,133,43,13,,,31,14,,,32*71
$GPGSV,6,4,21,15,,,37,19,,,30,20,24,112,35,21,,,34*47
$GPGSV,6,5,21,22,,,33,26,,,30,27,,,29,29,,,35*7D
$GPGSV,6,6,21,40,25,159,38*4F
$GPGLL,5543.71109,N,03736.59463,E,121501.00,A,A*6A
$GPRMC,121502.00,A,5543.71109,N,03736.59449,E,0.255,,110323,,,A*78
$GPVTG,,T,,M,0.255,N,0.472,K,A*20
$GPGGA,121502.00,5543.71109,N,03736.59449,E,1,04,5.24,169.2,M,13.3,M,,*5E
$GPGSA,A,3,20,11,12,05,,,,,,,,,5.85,5.24,2.58*02
$GPGSV,6,1,21,01,,,34,02,29,196,,04,,,35,05,06,136,31*7B
$GPGSV,6,2,21,06,,,36,07,,,25,09,,,37,10,,,36*74
$GPGSV,6,3,21,11,53,080,44,12,54,133,43,13,,,33,14,,,33*72
$GPGSV,6,4,21,15,,,36,19,,,30,20,24,112,34,21,,,32*41
$GPGSV,6,5,21,22,,,33,26,,,29,27,,,29,29,,,34*74
$GPGSV,6,6,21,40,25,159,38*4F
$GPGLL,5543.71109,N,03736.59449,E,121502.00,A,A*61
$GPRMC,121503.00,A,5543.71110,N,03736.59423,E,0.471,,110323,,,A*7D
$GPVTG,,T,,M,0.471,N,0.873,K,A*2D
$GPGGA,121503.00,5543.71110,N,03736.59423,E,1,04,5.24,169.0,M,13.3,M,,*59
$GPGSA,A,3,20,11,12,05,,,,,,,,,5.85,5.24,2.58*02
$GPGSV,6,1,21,01,,,36,02,29,196,25,04,,,36,05,06,136,32*7E
$GPGSV,6,2,21,06,,,36,07,,,26,09,,,38,10,,,37*79
$GPGSV,6,3,21,11,53,080,45,12,54,133,43,13,,,34,14,,,34*73
$GPGSV,6,4,21,15,,,36,19,,,31,20,24,112,35,21,,,32*41
$GPGSV,6,5,21,22,,,34,26,,,30,27,,,29,29,,,35*7A
$GPGSV,6,6,21,40,25,159,38*4F
$GPGLL,5543.71110,N,03736.59423,E,121503.00,A,A*64
$GPRMC,121504.00,A,5543.71105,N,03736.59474,E,0.127,,110323,,,A*7A
$GPVTG,,T,,M,0.127,N,0.235,K,A*23
$GPGGA,121504.00,5543.71105,N,03736.59474,E,1,05,1.93,169.3,M,13.3,M,,*52
$GPGSA,A,3,02,20,11,12,05,,,,,,,,2.55,1.93,1.66*0C
$GPGSV,6,1,21,01,,,37,02,29,196,26,04,,,36,05,06,136,32*7C
$GPGSV,6,2,21,06,,,37,07,,,26,09,,,37,10,,,37*77
$GPGSV,6,3,21,11,53,080,45,12,54,133,43,13,,,34,14,,,34*73
$GPGSV,6,4,21,15,,,37,19,,,31,20,24,112,35,21,,,32*40
$GPGSV,6,5,21,22,,,34,26,,,30,27,,,29,29,,,36*79
$GPGSV,6,6,21,40,25,159,38*4F
$GPGLL,5543.71105,N,03736.59474,E,121504.00,A,A*65
$GPRMC,121505.00,A,5543.71101,N,03736.59526,E,0.746,284.45,110323,,,A*69
$GPVTG,284.45,T,,M,0.746,N,1.381,K,A*3C
$GPGGA,121505.00,5543.71101,N,03736.59526,E,1,05,1.93,169.5,M,13.3,M,,*57
$GPGSA,A,3,02,20,11,12,05,,,,,,,,2.55,1.93,1.66*0C
$GPGSV,6,1,21,01,,,36,02,29,196,25,04,,,35,05,06,136,32*7D
$GPGSV,6,2,21,06,,,36,07,,,25,09,,,37,10,,,37*75
$GPGSV,6,3,21,11,53,080,44,12,54,133,42,13,,,32,14,,,33*72
$GPGSV,6,4,21,15,,,36,19,,,30,20,24,112,35,21,,,32*40
$GPGSV,6,5,21,22,,,33,26,,,29,27,,,29,29,,,36*76
$GPGSV,6,6,21,40,25,159,38*4F
$GPGLL,5543.71101,N,03736.59526,E,121505.00,A,A*66
$GPRMC,121506.00,A,5543.71101,N,03736.59538,E,0.373,,110323,,,A*76
$GPVTG,,T,,M,0.373,N,0.690,K,A*2B
$GPGGA,121506.00,5543.71101,N,03736.59538,E,1,05,1.93,169.6,M,13.3,M,,*58
$GPGSA,A,3,02,20,11,12,05,,,,,,,,2.55,1.93,1.66*0C
$GPGSV,6,1,21,01,,,37,02,29,196,26,04,,,36,05,06,136,32*7C
$GPGSV,6,2,21,06,,,37,07,,,26,09,,,37,10,,,37*77
$GPGSV,6,3,21,11,53,080,45,12,54,133,43,13,,,34,14,,,34*73
$GPGSV,6,4,21,15,,,37,19,,,31,20,24,112,36,21,,,32*43
$GPGSV,6,5,21,22,,,34,26,,,30,27,,,30,29,,,36*71
$GPGSV,6,6,21,40,25,159,38*4F
$GPGLL,5543.71101,N,03736.59538,E,121506.00,A,A*6A
$GPRMC,121507.00,A,5543.71101,N,03736.59535,E,0.063,,110323,,,A*78
$GPVTG,,T,,M,0.063,N,0.117,K,A*21
$GPGGA,121507.00,5543.71101,N,03736.59535,E,1,05,1.93,169.6,M,13.3,M,,*54
$GPGSA,A,3,02,20,11,12,05,,,,,,,,2.55,1.93,1.66*0C
$GPGSV,6,1,21,01,,,37,02,29,196,26,04,,,36,05,06,136,32*7C
$GPGSV,6,2,21,06,,,37,07,,,26,09,,,37,10,,,37*77
$GPGSV,6,3,21,11,53,080,45,12,54,133,43,13,,,34,14,,,34*73
$GPGSV,6,4,21,15,,,37,19,,,31,20,24,112,36,21,,,32*43
$GPGSV,6,5,21,22,,,34,26,,,30,27,,,30,29,,,36*71
$GPGSV,6,6,21,40,25,159,38*4F
$GPGLL,5543.71101,N,03736.59535,E,121507.00,A,A*66
$GPRMC,121508.00,A,5543.71103,N,03736.59512,E,0.104,,110323,,,A*70
$GPVTG,,T,,M,0.104,N,0.193,K,A*2D
$GPGGA,121508.00,5543.71103,N,03736.59512,E,1,05,1.93,169.5,M,13.3,M,,*5F
$GPGSA,A,3,02,20,11,12,05,,,,,,,,2.55,1.93,1.66*0C
$GPGSV,6,1,21,01,,,37,02,29,196,25,04,,,36,05,06,136,32*7F
$GPGSV,6,2,21,06,,,37,07,,,27,09,,,37,10,,,37*76
$GPGSV,6,3,21,11,53,080,45,12,54,133,43,13,,,33,14,,,33*73
$GPGSV,6,4,21,15,,,38,19,,,31,20,24,112,36,21,,,34*4A
$GPGSV,6,5,21,22,,,33,26,,,30,27,,,30,29,,,35*75
$GPGSV,6,6,21,40,25,159,38*4F
$GPGLL,5543.71103,N,03736.59512,E,121508.00,A,A*6E
$GPRMC,121509.00,A,5543.71106,N,03736.59493,E,0.032,,110323,,,A*78
$GPVTG,,T,,M,0.032,N,0.059,K,A*2E
$GPGGA,121509.00,5543.71106,N,03736.59493,E,1,04,5.25,169.4,M,13.3,M,,*5A
$GPGSA,A,3,20,11,12,05,,,,,,,,,5.85,5.25,2.59*02
$GPGSV,6,1,21,01,,,36,02,29,196,27,04,,,36,05,06,136,32*7C
$GPGSV,6,2,21,06,,,37,07,,,27,09,,,37,10,,,36*77
$GPGSV,6,3,21,11,53,080,45,12,54,133,43,13,,,33,14,,,33*73
$GPGSV,6,4,21,15,,,37,19,,,31,20,24,112,36,21,,,33*42
$GPGSV,6,5,21,22,,,33,26,,,30,27,,,29,29,,,36*7E
$GPGSV,6,6,21,40,25,159,38*4F
$GPGLL,5543.71106,N,03736.59493,E,121509.00,A,A*62
$GPRMC,121510.00,A,5543.71110,N,03736.59467,E,0.222,,110323,,,A*7F
$GPVTG,,T,,M,0.222,N,0.411,K,A*25
$GPGGA,121510.00,5543.71110,N,03736.59467,E,1,04,5.25,169.2,M,13.3,M,,*58
$GPGSA,A,3,20,11,12,05,,,,,,,,,5.85,5.25,2.59*02
$GPGSV,6,1,21,01,,,37,02,29,196,25,04,,,36,05,06,136,32*7F
$GPGSV,6,2,21,06,,,37,07,,,27,09,,,37,10,,,36*77
$GPGSV,6,3,21,11,53,080,45,12,54,133,43,13,,,34,14,,,34*73
$GPGSV,6,4,21,15,,,37,19,,,31,20,24,112,37,21,,,33*43
$GPGSV,6,5,21,22,,,33,26,,,30,27,,,29,29,,,36*7E
$GPGSV,6,6,21,40,25,159,38*4F
$GPGLL,5543.71110,N,03736.59467,E,121510.00,A,A*66
$GPRMC,121511.00,A,5543.71115,N,03736.59446,E,0.269,,110323,,,A*77
$GPVTG,,T,,M,0.269,N,0.498,K,A*2B
$GPGGA,121511.00,5543.71115,N,03736.59446,E,1,04,5.25,169.2,M,13.3,M,,*5F
$GPGSA,A,3,20,11,12,05,,,,,,,,,5.85,5.25,2.59*02
$GPGSV,6,1,21,01,,,37,02,29,196,,04,,,36,05,06,136,32*78
$GPGSV,6,2,21,06,,,37,07,,,27,09,,,38,10,,,37*79
$GPGSV,6,3,21,11,53,080,45,12,54,133,43,13,,,34,14,,,34*73
$GPGSV,6,4,21,15,,,38,19,,,31,20,24,112,37,21,,,33*4C
$GPGSV,6,5,21,22,,,33,26,,,30,27,,,30,29,,,37*77
$GPGSV,6,6,21,40,25,159,38*4F
$GPGLL,5543.71115,N,03736.59446,E,121511.00,A,A*61
$GPRMC,121512.00,A,5543.71120,N,03736.59422,E,0.289,,110323,,,A*7E
$GPVTG,,T,,M,0.289,N,0.535,K,A*23
$GPGGA,121512.00,5543.71120,N,03736.59422,E,1,04,5.25,169.1,M,13.3,M,,*5B
$GPGSA,A,3,20,11,12,05,,,,,,,,,5.85,5.25,2.59*02
$GPGSV,6,1,21,01,,,34,02,29,196,26,04,,,35,05,06,136,32*7C
$GPGSV,6,2,21,06,,,37,07,,,26,09,,,38,10,,,37*78
$GPGSV,6,3,21,11,53,080,45,12,54,133,43,13,,,33,14,,,34*74
$GPGSV,6,4,21,15,,,37,19,,,31,20,24,112,37,21,,,35*45
$GPGSV,6,5,21,22,,,33,26,,,30,27,,,30,29,,,37*77
$GPGSV,6,6,21,40,25,159,38*4F
$GPGLL,5543.71120,N,03736.59422,E,121512.00,A,A*66
$GPRMC,121513.00,A,5543.71126,N,03736.59380,E,0.146,,110323,,,A*76
$GPVTG,,T,,M,0.146,N,0.270,K,A*25
$GPGGA,121513.00,5543.71126,N,03736.59380,E,1,05,1.93,168.9,M,13.3,M,,*52
$GPGSA,A,3,02,20,11,12,05,,,,,,,,2.55,1.93,1.66*0C
$GPGSV,6,1,21,01,,,34,02,29,196,27,04,,,35,05,06,136,31*7E
$GPGSV,6,2,21,06,,,38,07,,,25,09,,,38,10,,,37*74
$GPGSV,6,3,21,11,53,080,45,12,54,133,43,13,,,32,14,,,33*72
$GPGSV,6,4,21,15,,,37,19,,,31,20,24,112,37,21,,,34*44
$GPGSV,6,5,21,22,,,32,26,,,30,27,,,30,29,,,37*76
$GPGSV,6,6,21,40,25,159,38*4F
$GPGLL,5543.71126,N,03736.59380,E,121513.00,A,A*6E
$GPRMC,121514.00,A,5543.71130,N,03736.59364,E,0.053,,110323,,,A*79
$GPVTG,,T,,M,0.053,N,0.098,K,A*24
$GPGGA,121514.00,5543.71130,N,03736.59364,E,1,05,1.93,168.8,M,13.3,M,,*59
$GPGSA,A,3,02,20,11,12,05,,,,,,,,2.55,1.93,1.66*0C
$GPGSV,5,1,20,02,29,196,27,04,,,35,05,06,136,31,06,,,38*77
$GPGSV,5,2,20,07,,,25,09,,,38,10,,,37,11,53,080,45*44
$GPGSV,5,3,20,12,54,133,43,13,,,32,14,,,34,15,,,36*49
$GPGSV,5,4,20,19,,,31,20,24,112,37,21,,,34,22,,,32*47
$GPGSV,5,5,20,26,,,30,27,,,30,29,,,37,40,25,159,38*40
$GPGLL,5543.71130,N,03736.59364,E,121514.00,A,A*64
$GPRMC,121515.00,A,5543.71130,N,03736.59394,E,0.138,,110323,,,A*7B
$GPVTG,,T,,M,0.138,N,0.256,K,A*28
$GPGGA,121515.00,5543.71130,N,03736.59394,E,1,05,1.93,169.0,M,13.3,M,,*5E
$GPGSA,A,3,02,20,11,12,05,,,,,,,,2.55,1.93,1.66*0C
$GPGSV,6,1,21,02,29,196,28,03,,,34,04,,,35,05,06,136,31*73
$GPGSV,6,2,21,06,,,37,07,,,25,09,,,38,10,,,37*7B
$GPGSV,6,3,21,11,53,080,45,12,54,133,43,13,,,32,14,,,34*75
$GPGSV,6,4,21,15,,,36,19,,,31,20,24,112,36,21,,,35*45
$GPGSV,6,5,21,22,,,31,26,,,30,27,,,30,29,,,37*75
$GPGSV,6,6,21,40,25,159,38*4F
$GPGLL,5543.71130,N,03736.59394,E,121515.00,A,A*6A
$GPRMC,121516.00,A,5543.71127,N,03736.59476,E,0.077,,110323,,,A*7F
$GPVTG,,T,,M,0.077,N,0.143,K,A*25
$GPGGA,121516.00,5543.71127,N,03736.59476,E,1,05,1.93,169.4,M,13.3,M,,*54
$GPGSA,A,3,02,20,11,12,05,,,,,,,,2.55,1.93,1.66*0C
$GPGSV,6,1,21,02,29,196,29,03,,,35,04,,,36,05,06,136,31*70
$GPGSV,6,2,21,06,,,37,07,,,26,09,,,37,10,,,37*77
$GPGSV,6,3,21,11,53,080,45,12,54,133,43,13,,,33,14,,,34*74
$GPGSV,6,4,21,15,,,37,19,,,31,20,24,112,36,21,,,33*42
$GPGSV,6,5,21,22,,,32,26,,,30,27,,,30,29,,,37*76
$GPGSV,6,6,21,40,25,159,38*4F
$GPGLL,5543.71127,N,03736.59476,E,121516.00,A,A*64
$GPRMC,121517.00,A,5543.71122,N,03736.59552,E,0.150,,110323,,,A*78
$GPVTG,,T,,M,0.150,N,0.278,K,A*2A
$GPGGA,121517.00,5543.71122,N,03736.59552,E,1,05,1.93,169.9,M,13.3,M,,*5A
$GPGSA,A,3,02,20,11,12,05,,,,,,,,2.55,1.93,1.66*0C
$GPGSV,6,1,21,02,29,196,29,03,,,36,04,,,35,05,06,136,31*70
$GPGSV,6,2,21,06,,,37,07,,,26,09,,,37,10,,,34*74
$GPGSV,6,3,21,11,53,080,44,12,54,133,43,13,,,32,14,,,35*75
$GPGSV,6,4,21,15,,,37,19,,,31,20,24,112,36,21,,,32*43
$GPGSV,6,5,21,22,,,33,26,,,30,27,,,29,29,,,37*7F
$GPGSV,6,6,21,40,25,159,38*4F
$GPGLL,5543.71122,N,03736.59552,E,121517.00,A,A*67
$GPRMC,121518.00,A,5543.71122,N,03736.59602,E,0.395,,110323,,,D*7F
$GPVTG,,T,,M,0.395,N,0.732,K,D*2F
$GPGGA,121518.00,5543.71122,N,03736.59602,E,2,05,1.93,170.3,M,13.3,M,,0000*52
$GPGSA,A,3,02,20,11,12,05,,,,,,,,2.55,1.93,1.66*0C
$GPGSV,6,1,21,02,29,196,29,03,,,36,04,,,35,05,06,136,31*70
$GPGSV,6,2,21,06,,,37,07,,,26,09,,,36,10,,,36*77
$GPGSV,6,3,21,11,53,080,45,12,54,133,42,13,,,32,14,,,35*75
$GPGSV,6,4,21,15,,,36,19,,,32,20,24,112,36,21,,,31*42
$GPGSV,6,5,21,22,,,33,26,,,30,27,,,29,29,,,36*7E
$GPGSV,6,6,21,40,25,159,38*4F
$GPGLL,5543.71122,N,03736.59602,E,121518.00,A,D*6B
$GPRMC,121519.00,A,5543.71118,N,03736.59631,E,0.516,,110323,,,D*7A
$GPVTG,,T,,M,0.516,N,0.956,K,D*2E
$GPGGA,121519.00,5543.71118,N,03736.59631,E,2,05,1.93,170.5,M,13.3,M,,0000*5C
$GPGSA,A,3,02,20,11,12,05,,,,,,,,2.55,1.93,1.66*0C
$GPGSV,6,1,21,02,29,196,30,03,,,36,04,,,35,05,06,136,31*78
$GPGSV,6,2,21,06,,,37,07,,,27,09,,,36,10,,,36*76
$GPGSV,6,3,21,11,53,079,45,12,54,133,42,13,,,32,14,,,33*75
$GPGSV,6,4,21,15,,,37,19,,,31,20,24,112,36,21,,,32*43
$GPGSV,6,5,21,22,,,34,26,,,30,27,,,29,29,,,36*79
$GPGSV,6,6,21,40,25,159,38*4F
$GPGLL,5543.71118,N,03736.59631,E,121519.00,A,D*63
$GPRMC,121520.00,A,5543.71116,N,03736.59649,E,0.436,,110323,,,D*72
$GPVTG,,T,,M,0.436,N,0.808,K,D*27
$GPGGA,121520.00,5543.71116,N,03736.59649,E,2,05,1.93,170.6,M,13.3,M,,0000*54
$GPGSA,A,3,02,20,11,12,05,,,,,,,,2.55,1.93,1.66*0C
$GPGSV,6,1,21,02,29,196,29,03,,,35,04,,,35,05,06,136,31*73
$GPGSV,6,2,21,06,,,37,07,,,27,09,,,37,10,,,36*77
$GPGSV,6,3,21,11,53,079,45,12,54,133,42,13,,,33,14,,,34*73
$GPGSV,6,4,21,15,,,37,19,,,31,20,24,112,36,21,,,32*43
$GPGSV,6,5,21,22,,,33,26,,,30,27,,,29,29,,,36*7E
$GPGSV,6,6,21,40,25,159,38*4F
$GPGLL,5543.71116,N,03736.59649,E,121520.00,A,D*68
$GPRMC,121521.00,A,5543.71115,N,03736.59673,E,0.129,,110323,,,D*72
$GPVTG,,T,,M,0.129,N,0.239,K,D*24
$GPGGA,121521.00,5543.71115,N,03736.59673,E,2,05,1.93,170.9,M,13.3,M,,0000*50
$GPGSA,A,3,02,20,11,12,05,,,,,,,,2.55,1.93,1.66*0C
$GPGSV,6,1,21,02,29,196,29,03,,,34,04,,,35,05,06,136,31*72
$GPGSV,6,2,21,06,,,37,07,,,27,09,,,37,10,,,35*74
$GPGSV,6,3,21,11,53,079,45,12,54,133,42,13,,,33,14,,,34*73
$GPGSV,6,4,21,15,,,36,19,,,31,20,24,112,36,21,,,32*42
$GPGSV,6,5,21,22,,,33,26,,,30,27,,,29,29,,,35*7D
$GPGSV,6,6,21,40,25,159,38*4F
$GPGLL,5543.71115,N,03736.59673,E,121521.00,A,D*63
$GPRMC,121522.00,A,5543.71114,N,03736.59718,E,0.042,,110323,,,D*70
$GPVTG,,T,,M,0.042,N,0.079,K,D*2E
$GPGGA,121522.00,5543.71114,N,03736.59718,E,2,05,1.93,171.1,M,13.3,M,,0000*57
$GPGSA,A,3,02,20,11,12,05,,,,,,,,2.55,1.93,1.66*0C
$GPGSV,6,1,21,02,29,196,28,03,,,35,04,,,35,05,06,136,31*72
$GPGSV,6,2,21,06,,,37,07,,,27,09,,,37,10,,,35*74
$GPGSV,6,3,21,11,53,079,45,12,54,133,43,13,,,33,14,,,33*75
$GPGSV,6,4,21,15,,,36,19,,,32,20,24,112,37,21,,,33*41
$GPGSV,6,5,21,22,,,33,26,,,30,27,,,29,29,,,36*7E
$GPGSV,6,6,21,40,25,159,38*4F
$GPGLL,5543.71114,N,03736.59718,E,121522.00,A,D*6D
$GPRMC,121523.00,A,5543.71114,N,03736.59750,E,0.110,,110323,,,D*7B
$GPVTG,,T,,M,0.110,N,0.204,K,D*20
$GPGGA,121523.00,5543.71114,N,03736.59750,E,2,05,1.93,171.4,M,13.3,M,,0000*5F
$GPGSA,A,3,02,20,11,12,05,,,,,,,,2.55,1.93,1.66*0C
$GPGSV,6,1,21,02,29,196,28,03,,,35,04,,,36,05,06,136,32*72
$GPGSV,6,2,21,06,,,38,07,,,27,09,,,37,10,,,36*78
$GPGSV,6,3,21,11,53,079,45,12,54,133,43,13,,,33,14,,,34*72
$GPGSV,6,4,21,15,,,36,19,,,31,20,24,112,37,21,,,33*42
$GPGSV,6,5,21,22,,,35,26,,,30,27,,,29,29,,,36*78
$GPGSV,6,6,21,40,25,159,38*4F
$GPGLL,5543.71114,N,03736.59750,E,121523.00,A,D*60
$GPRMC,121524.00,A,5543.71115,N,03736.59769,E,0.156,,110323,,,D*75
$GPVTG,,T,,M,0.156,N,0.290,K,D*2F
$GPGGA,121524.00,5543.71115,N,03736.59769,E,2,05,1.93,171.6,M,13.3,M,,0000*51
$GPGSA,A,3,02,20,11,12,05,,,,,,,,2.55,1.93,1.66*0C
$GPGSV,6,1,21,02,29,196,27,03,,,35,04,,,35,05,06,136,31*7D
$GPGSV,6,2,21,06,,,36,07,,,27,09,,,37,10,,,36*76
$GPGSV,6,3,21,11,53,079,45,12,54,133,43,13,,,33,14,,,33*75
$GPGSV,6,4,21,15,,,37,19,,,31,20,24,112,37,21,,,32*42
$GPGSV,6,5,21,22,,,33,26,,,30,27,,,29,29,,,36*7E
$GPGSV,6,6,21,40,25,159,38*4F
$GPGLL,5543.71115,N,03736.59769,E,121524.00,A,D*6C
$GPRMC,121525.00,A,5543.71118,N,03736.59773,E,0.116,,110323,,,D*76
$GPVTG,,T,,M,0.116,N,0.216,K,D*25
$GPGGA,121525.00,5543.71118,N,03736.59773,E,2,05,1.93,171.7,M,13.3,M,,0000*57
$GPGSA,A,3,02,20,11,12,05,,,,,,,,2.55,1.93,1.66*0C
$GPGSV,6,1,21,02,29,196,26,03,,,35,04,,,35,05,06,136,31*7C
$GPGSV,6,2,21,06,,,36,07,,,27,09,,,37,10,,,36*76
$GPGSV,6,3,21,11,53,079,45,12,54,133,43,13,,,34,14,,,33*72
$GPGSV,6,4,21,15,,,37,19,,,32,20,24,112,37,21,,,32*41
$GPGSV,6,5,21,22,,,33,26,,,30,27,,,29,29,,,35*7D
$GPGSV,6,6,21,40,25,159,38*4F
$GPGLL,5543.71118,N,03736.59773,E,121525.00,A,D*6B
$GPRMC,121526.00,A,5543.71121,N,03736.59755,E,0.032,,110323,,,D*7C
$GPVTG,,T,,M,0.032,N,0.059,K,D*2B
$GPGGA,121526.00,5543.71121,N,03736.59755,E,2,05,1.93,171.7,M,13.3,M,,0000*5A
$GPGSA,A,3,02,20,11,12,05,,,,,,,,2.55,1.93,1.66*0C
$GPGSV,6,1,21,02,29,196,25,03,,,35,04,,,35,05,06,136,31*7F
$GPGSV,6,2,21,06,,,36,07,,,27,09,,,37,10,,,37*77
$GPGSV,6,3,21,11,53,079,45,12,54,133,43,13,,,34,14,,,32*73
$GPGSV,6,4,21,15,,,37,19,,,31,20,24,112,37,21,,,33*43
$GPGSV,6,5,21,22,,,33,26,,,30,27,,,30,29,,,35*75
$GPGSV,6,6,21,40,25,159,38*4F
$GPGLL,5543.71121,N,03736.59755,E,121526.00,A,D*66
$GPRMC,121527.00,A,5543.71126,N,03736.59730,E,0.533,,110323,,,D*7D
$GPVTG,,T,,M,0.533,N,0.987,K,D*25
$GPGGA,121527.00,5543.71126,N,03736.59730,E,2,04,5.26,171.6,M,13.3,M,,0000*55
$GPGSA,A,3,20,11,12,05,,,,,,,,,5.86,5.26,2.59*02
$GPGSV,6,1,21,02,29,196,,03,,,35,04,,,35,05,06,136,31*78
$GPGSV,6,2,21,06,,,36,07,,,27,09,,,37,10,,,37*77
$GPGSV,6,3,21,11,53,079,45,12,54,133,43,13,,,34,14,,,33*72
$GPGSV,6,4,21,15,,,37,19,,,32,20,24,112,37,21,,,33*40
$GPGSV,6,5,21,22,,,33,26,,,30,27,,,30,29,,,36*76
$GPGSV,6,6,21,40,25,159,38*4F
$GPGLL,5543.71126,N,03736.59730,E,121527.00,A,D*63
$GPRMC,121528.00,A,5543.71131,N,03736.59692,E,0.415,,110323,,,D*78
$GPVTG,,T,,M,0.415,N,0.769,K,D*2E
$GPGGA,121528.00,5543.71131,N,03736.59692,E,2,04,5.26,171.5,M,13.3,M,,0000*56
$GPGSA,A,3,20,11,12,05,,,,,,,,,5.86,5.26,2.59*02
$GPGSV,6,1,21,02,29,196,,03,,,35,04,,,35,05,06,136,30*79
$GPGSV,6,2,21,06,,,36,07,,,27,09,,,37,10,,,37*77
$GPGSV,6,3,21,11,53,079,45,12,54,133,42,13,,,34,14,,,33*73
$GPGSV,6,4,21,15,,,35,19,,,31,20,24,112,37,21,,,32*40
$GPGSV,6,5,21,22,,,34,26,,,30,27,,,29,29,,,35*7A
$GPGSV,6,6,21,40,25,159,38*4F
$GPGLL,5543.71131,N,03736.59692,E,121528.00,A,D*63
$GPRMC,121529.00,A,5543.71136,N,03736.59647,E,0.362,,110323,,,D*71
$GPVTG,,T,,M,0.362,N,0.670,K,D*20
$GPGGA,121529.00,5543.71136,N,03736.59647,E,2,04,5.26,171.3,M,13.3,M,,0000*5E
$GPGSA,A,3,20,11,12,05,,,,,,,,,5.86,5.26,2.59*02
$GPGSV,6,1,21,02,29,196,,03,,,35,04,,,35,05,06,136,31*78
$GPGSV,6,2,21,06,,,36,07,,,27,09,,,37,10,,,36*76
$GPGSV,6,3,21,11,53,079,45,12,54,133,42,13,,,34,14,,,33*73
$GPGSV,6,4,21,15,,,35,19,,,31,20,24,112,36,21,,,32*41
$GPGSV,6,5,21,22,,,34,26,,,30,27,,,28,29,,,35*7B
$GPGSV,6,6,21,40,25,159,38*4F
$GPGLL,5543.71136,N,03736.59647,E,121529.00,A,D*6D
$GPRMC,121530.00,A,5543.71140,N,03736.59610,E,0.227,,110323,,,D*7A
$GPVTG,,T,,M,0.227,N,0.420,K,D*27
$GPGGA,121530.00,5543.71140,N,03736.59610,E,2,04,5.26,171.2,M,13.3,M,,0000*54
$GPGSA,A,3,20,11,12,05,,,,,,,,,5.87,5.26,2.59*03
$GPGSV,6,1,21,02,29,196,27,03,,,35,04,,,34,05,06,136,31*7C
$GPGSV,6,2,21,06,,,35,07,,,26,09,,,36,10,,,36*75
$GPGSV,6,3,21,11,53,079,45,12,54,133,43,13,,,33,14,,,32*74
$GPGSV,6,4,21,15,,,36,19,,,31,20,24,112,36,21,,,31*41
$GPGSV,6,5,21,22,,,33,26,,,30,27,,,29,29,,,35*7D
$GPGSV,6,6,21,40,25,159,38*4F
$GPGLL,5543.71140,N,03736.59610,E,121530.00,A,D*66
$GPRMC,121531.00,A,5543.71145,N,03736.59560,E,0.045,,110323,,,D*7C
$GPVTG,,T,,M,0.045,N,0.084,K,D*2B
$GPGGA,121531.00,5543.71145,N,03736.59560,E,2,05,1.93,171.0,M,13.3,M,,0000*5D
$GPGSA,A,3,02,20,11,12,05,,,,,,,,2.55,1.93,1.66*0C
$GPGSV,6,1,21,02,29,196,25,03,,,34,04,,,34,05,06,136,31*7F
$GPGSV,6,2,21,06,,,35,07,,,26,09,,,36,10,,,36*75
$GPGSV,6,3,21,11,53,079,45,12,54,133,43,13,,,31,14,,,31*75
$GPGSV,6,4,21,15,,,36,19,,,31,20,24,112,36,21,,,31*41
$GPGSV,6,5,21,22,,,33,26,,,30,27,,,29,29,,,35*7D
$GPGSV,6,6,21,40,25,159,38*4F
$GPGLL,5543.71145,N,03736.59560,E,121531.00,A,D*66
$GPRMC,121532.00,A,5543.71152,N,03736.59470,E,0.075,,110323,,,D*7A
$GPVTG,,T,,M,0.075,N,0.139,K,D*2F
$GPGGA,121532.00,5543.71152,N,03736.59470,E,2,05,1.93,170.5,M,13.3,M,,0000*5C
$GPGSA,A,3,02,20,11,12,05,,,,,,,,2.55,1.93,1.66*0C
$GPGSV,6,1,21,02,29,196,25,03,,,34,04,,,34,05,06,136,31*7F
$GPGSV,6,2,21,06,,,36,07,,,27,09,,,36,10,,,36*77
$GPGSV,6,3,21,11,53,079,45,12,54,133,43,13,,,32,14,,,32*75
$GPGSV,6,4,21,15,,,36,19,,,31,20,24,112,36,21,,,31*41
$GPGSV,6,5,21,22,,,33,26,,,30,27,,,29,29,,,35*7D
$GPGSV,6,6,21,40,25,159,38*4F
$GPGLL,5543.71152,N,03736.59470,E,121532.00,A,D*63
$GPRMC,121533.00,A,5543.71152,N,03736.59451,E,0.196,,110323,,,D*74
$GPVTG,,T,,M,0.196,N,0.364,K,D*29
$GPGGA,121533.00,5543.71152,N,03736.59451,E,2,04,5.26,170.4,M,13.3,M,,0000*54
$GPGSA,A,3,20,11,12,05,,,,,,,,,5.87,5.26,2.60*09
$GPGSV,6,1,21,02,29,196,27,03,,,34,04,,,34,05,06,136,30*7C
$GPGSV,6,2,21,06,,,35,07,,,27,09,,,36,10,,,36*74
$GPGSV,6,3,21,11,53,079,45,12,54,133,43,13,,,32,14,,,33*74
$GPGSV,6,4,21,15,,,35,19,,,31,20,24,112,35,21,,,31*41
$GPGSV,6,5,21,22,,,33,26,,,30,27,,,29,29,,,34*7C
$GPGSV,6,6,21,40,25,159,38*4F
$GPGLL,5543.71152,N,03736.59451,E,121533.00,A,D*61
$GPRMC,121534.00,A,5543.71154,N,03736.59408,E,0.094,,110323,,,D*7A
$GPVTG,,T,,M,0.094,N,0.174,K,D*29
$GPGGA,121534.00,5543.71154,N,03736.59408,E,2,05,1.93,170.2,M,13.3,M,,0000*54
$GPGSA,A,3,02,20,11,12,05,,,,,,,,2.55,1.93,1.66*0C
$GPGSV,6,1,21,02,29,196,26,03,,,35,04,,,36,05,06,136,30*7E
$GPGSV,6,2,21,06,,,36,07,,,27,09,,,36,10,,,36*77
$GPGSV,6,3,21,11,53,079,45,12,54,133,43,13,,,32,14,,,33*74
$GPGSV,6,4,21,15,,,36,19,,,32,20,24,112,35,21,,,32*42
$GPGSV,6,5,21,22,,,33,26,,,30,27,,,30,29,,,35*75
$GPGSV,6,6,21,40,25,159,38*4F
$GPGLL,5543.71154,N,03736.59408,E,121534.00,A,D*6C
$GPRMC,121535.00,A,5543.71156,N,03736.59371,E,0.391,,110323,,,D*76
$GPVTG,,T,,M,0.391,N,0.724,K,D*2C
$GPGGA,121535.00,5543.71156,N,03736.59371,E,2,05,1.93,170.0,M,13.3,M,,0000*5C
$GPGSA,A,3,02,20,11,12,05,,,,,,,,2.55,1.93,1.66*0C
$GPGSV,6,1,21,02,29,196,26,03,,,35,04,,,35,05,06,136,30*7D
$GPGSV,6,2,21,06,,,36,07,,,28,09,,,36,10,,,36*78
$GPGSV,6,3,21,11,53,079,45,12,54,133,43,13,,,32,14,,,35*72
$GPGSV,6,4,21,15,,,35,19,,,31,20,24,112,35,21,,,31*41
$GPGSV,6,5,21,22,,,34,26,,,30,27,,,29,29,,,35*7A
$GPGSV,6,6,21,40,25,159,38*4F
$GPGLL,5543.71156,N,03736.59371,E,121535.00,A,D*66
$GPRMC,121536.00,A,5543.71152,N,03736.59373,E,0.725,,110323,,,D*78
$GPVTG,,T,,M,0.725,N,1.343,K,D*23
$GPGGA,121536.00,5543.71152,N,03736.59373,E,2,05,1.93,169.9,M,13.3,M,,0000*58
$GPGSA,A,3,02,20,11,12,05,,,,,,,,2.55,1.93,1.67*0D
$GPGSV,6,1,21,02,29,196,26,03,,,35,04,,,35,05,06,136,30*7D
$GPGSV,6,2,21,06,,,37,07,,,27,09,,,37,10,,,36*77
$GPGSV,6,3,21,11,53,079,45,12,54,133,43,13,,,32,14,,,33*74
$GPGSV,6,4,21,15,,,36,19,,,31,20,24,112,35,21,,,31*42
$GPGSV,6,5,21,22,,,34,26,,,30,27,,,29,29,,,35*7A
$GPGSV,6,6,21,40,25,159,38*4F
$GPGLL,5543.71152,N,03736.59373,E,121536.00,A,D*63
$GPRMC,121537.00,A,5543.71153,N,03736.59341,E,0.621,,110323,,,D*7C
$GPVTG,,T,,M,0.621,N,1.149,K,D*2E
$GPGGA,121537.00,5543.71153,N,03736.59341,E,2,04,5.26,169.7,M,13.3,M,,0000*5C
$GPGSA,A,3,20,11,12,05,,,,,,,,,5.87,5.26,2.60*09
$GPGSV,6,1,22,02,29,196,26,03,,,35,04,,,35,05,06,136,30*7E
$GPGSV,6,2,22,06,,,36,07,,,27,09,,,37,10,,,37*74
$GPGSV,6,3,22,11,53,079,46,12,54,133,43,13,,,32,14,,,33*74
$GPGSV,6,4,22,15,,,35,19,,,31,20,24,112,35,21,,,31*42
$GPGSV,6,5,22,22,,,33,25,79,204,,26,,,31,27,,,29*4D
$GPGSV,6,6,22,29,,,35,40,25,159,38*41
$GPGLL,5543.71153,N,03736.59341,E,121537.00,A,D*62
$GPRMC,121538.00,A,5543.71155,N,03736.59310,E,0.362,,110323,,,D*73
$GPVTG,,T,,M,0.362,N,0.671,K,D*21
$GPGGA,121538.00,5543.71155,N,03736.59310,E,2,04,5.27,169.5,M,13.3,M,,0000*52
$GPGSA,A,3,20,11,12,05,,,,,,,,,5.87,5.27,2.60*08
$GPGSV,6,1,22,02,29,196,26,03,,,34,04,,,35,05,06,136,30*7F
$GPGSV,6,2,22,06,,,36,07,,,27,09,,,36,10,,,36*74
$GPGSV,6,3,22,11,53,079,46,12,54,133,43,13,,,33,14,,,32*74
$GPGSV,6,4,22,15,,,35,19,,,32,20,24,112,35,21,,,32*42
$GPGSV,6,5,22,22,,,33,25,79,204,,26,,,30,27,,,29*4C
$GPGSV,6,6,22,29,,,34,40,25,159,38*40
$GPGLL,5543.71155,N,03736.59310,E,121538.00,A,D*6F
$GPRMC,121539.00,A,5543.71154,N,03736.59315,E,0.256,,110323,,,D*70
$GPVTG,,T,,M,0.256,N,0.473,K,D*27
$GPGGA,121539.00,5543.71154,N,03736.59315,E,2,05,1.93,169.5,M,13.3,M,,0000*5D
$GPGSA,A,3,02,20,11,12,05,,,,,,,,2.55,1.93,1.67*0D
$GPGSV,6,1,22,02,29,196,27,03,,,34,04,,,35,05,06,136,31*7F
$GPGSV,6,2,22,06,,,37,07,,,27,09,,,36,10,,,36*75
$GPGSV,6,3,22,11,53,079,46,12,54,133,43,13,,,32,14,,,32*75
$GPGSV,6,4,22,15,,,36,19,,,32,20,24,112,35,21,,,32*41
$GPGSV,6,5,22,22,,,33,25,79,204,,26,,,31,27,,,29*4D
$GPGSV,6,6,22,29,,,35,40,25,159,38*41
$GPGLL,5543.71154,N,03736.59315,E,121539.00,A,D*6A
$GPRMC,121540.00,A,5543.71152,N,03736.59337,E,0.172,,110323,,,D*7D
$GPVTG,,T,,M,0.172,N,0.318,K,D*28
$GPGGA,121540.00,5543.71152,N,03736.59337,E,2,05,1.93,169.6,M,13.3,M,,0000*56
$GPGSA,A,3,02,20,11,12,05,,,,,,,,2.55,1.93,1.67*0D
$GPGSV,6,1,22,02,29,196,27,03,,,34,04,,,35,05,06,136,31*7F
$GPGSV,6,2,22,06,,,37,07,,,27,09,,,36,10,,,36*75
$GPGSV,6,3,22,11,53,079,46,12,54,133,43,13,,,32,14,,,32*75
$GPGSV,6,4,22,15,,,36,19,,,32,20,24,112,35,21,,,32*41
$GPGSV,6,5,22,22,,,33,25,79,204,,26,,,30,27,,,29*4C
$GPGSV,6,6,22,29,,,35,40,25,159,38*41
$GPGLL,5543.71152,N,03736.59337,E,121540.00,A,D*62
$GPRMC,121541.00,A,5543.71155,N,03736.59296,E,0.492,,110323,,,D*7A
$GPVTG,,T,,M,0.492,N,0.910,K,D*21
$GPGGA,121541.00,5543.71155,N,03736.59296,E,2,05,1.93,169.4,M,13.3,M,,0000*58
$GPGSA,A,3,02,20,11,12,05,,,,,,,,2.55,1.93,1.67*0D
$GPGSV,6,1,22,02,29,196,26,03,,,35,04,,,35,05,06,136,31*7F
$GPGSV,6,2,22,06,,,37,07,,,27,09,,,37,10,,,36*74
$GPGSV,6,3,22,11,53,079,45,12,54,133,43,13,,,32,14,,,32*76
$GPGSV,6,4,22,15,,,36,19,,,32,20,24,112,35,21,,,32*41
$GPGSV,6,5,22,22,,,33,25,79,204,,26,,,30,27,,,29*4C
$GPGSV,6,6,22,29,,,36,40,25,159,38*42
$GPGLL,5543.71155,N,03736.59296,E,121541.00,A,D*6E
$GPRMC,121542.00,A,5543.71152,N,03736.59328,E,0.389,,110323,,,D*77
$GPVTG,,T,,M,0.389,N,0.720,K,D*21
$GPGGA,121542.00,5543.71152,N,03736.59328,E,2,05,1.93,169.5,M,13.3,M,,0000*59
$GPGSA,A,3,02,20,11,12,05,,,,,,,,2.55,1.93,1.67*0D
$GPGSV,6,1,22,02,29,196,26,03,,,35,04,,,35,05,07,136,32*7D
$GPGSV,6,2,22,06,,,37,07,,,27,09,,,36,10,,,36*75
$GPGSV,6,3,22,11,53,079,45,12,54,133,43,13,,,33,14,,,32*77
$GPGSV,6,4,22,15,,,36,19,,,32,20,24,112,35,21,,,32*41
$GPGSV,6,5,22,22,,,33,25,79,204,,26,,,30,27,,,29*4C
$GPGSV,6,6,22,29,,,36,40,25,159,38*42
$GPGLL,5543.71152,N,03736.59328,E,121542.00,A,D*6E
$GPRMC,121543.00,A,5543.71153,N,03736.59323,E,0.367,,110323,,,D*7C
$GPVTG,,T,,M,0.367,N,0.680,K,D*2A
$GPGGA,121543.00,5543.71153,N,03736.59323,E,2,05,1.93,169.5,M,13.3,M,,0000*52
$GPGSA,A,3,02,20,11,12,05,,,,,,,,2.55,1.93,1.67*0D
$GPGSV,6,1,22,02,30,196,26,03,,,35,04,,,35,05,07,136,32*75
$GPGSV,6,2,22,06,,,37,07,,,27,09,,,37,10,,,35*77
$GPGSV,6,3,22,11,53,079,46,12,54,133,43,13,,,32,14,,,32*75
$GPGSV,6,4,22,15,,,36,19,,,31,20,24,112,35,21,,,31*41
$GPGSV,6,5,22,22,,,33,25,79,204,,26,,,30,27,,,29*4C
$GPGSV,6,6,22,29,,,35,40,25,159,38*41
$GPGLL,5543.71153,N,03736.59323,E,121543.00,A,D*65
$GPRMC,121544.00,A,5543.71153,N,03736.59320,E,0.139,,110323,,,D*71
$GPVTG,,T,,M,0.139,N,0.257,K,D*2D
$GPGGA,121544.00,5543.71153,N,03736.59320,E,2,04,5.27,169.5,M,13.3,M,,0000*5C
$GPGSA,A,3,20,11,12,05,,,,,,,,,5.88,5.27,2.60*07
$GPGSV,6,1,22,02,30,196,,03,,,35,04,,,35,05,07,136,32*71
$GPGSV,6,2,22,06,,,37,07,,,27,09,,,37,10,,,35*77
$GPGSV,6,3,22,11,53,079,45,12,54,133,43,13,,,33,14,,,32*77
$GPGSV,6,4,22,15,,,36,19,,,31,20,24,112,35,21,,,31*41
$GPGSV,6,5,22,22,,,33,25,79,204,,26,,,30,27,,,29*4C
$GPGSV,6,6,22,29,,,35,40,25,159,38*41
$GPGLL,5543.71153,N,03736.59320,E,121544.00,A,D*61
$GPRMC,121545.00,A,5543.71152,N,03736.59318,E,0.466,,110323,,,D*75
$GPVTG,,T,,M,0.466,N,0.862,K,D*2E
$GPGGA,121545.00,5543.71152,N,03736.59318,E,2,04,5.27,169.5,M,13.3,M,,0000*57
$GPGSA,A,3,20,11,12,05,,,,,,,,,5.88,5.27,2.60*07
$GPGSV,6,1,22,02,30,196,26,03,,,35,04,,,35,05,07,136,32*75
$GPGSV,6,2,22,06,,,37,07,,,27,09,,,36,10,,,36*75
$GPGSV,6,3,22,11,53,079,45,12,54,133,43,13,,,32,14,,,31*75
$GPGSV,6,4,22,15,,,36,19,,,31,20,24,112,35,21,,,32*42
$GPGSV,6,5,22,22,,,33,25,79,204,,26,,,30,27,,,30*44
$GPGSV,6,6,22,29,,,36,40,25,159,38*42
$GPGLL,5543.71152,N,03736.59318,E,121545.00,A,D*6A
$GPRMC,121546.00,A,5543.71150,N,03736.59323,E,0.591,,110323,,,D*75
$GPVTG,,T,,M,0.591,N,1.095,K,D*26
$GPGGA,121546.00,5543.71150,N,03736.59323,E,2,04,5.27,169.5,M,13.3,M,,0000*5E
$GPGSA,A,3,20,11,12,05,,,,,,,,,5.88,5.27,2.60*07
$GPGSV,6,1,22,02,30,196,,03,,,34,04,,,35,05,07,136,32*70
$GPGSV,6,2,22,06,,,37,07,,,27,09,,,36,10,,,36*75
$GPGSV,6,3,22,11,53,079,45,12,54,133,43,13,,,32,14,,,31*75
$GPGSV,6,4,22,15,,,36,19,,,31,20,24,112,34,21,,,32*43
$GPGSV,6,5,22,22,,,33,25,79,204,,26,,,30,27,,,30*44
$GPGSV,6,6,22,29,,,36,40,25,159,38*42
$GPGLL,5543.71150,N,03736.59323,E,121546.00,A,D*63
$GPRMC,121547.00,A,5543.71148,N,03736.59319,E,0.351,,110323,,,D*7E
$GPVTG,,T,,M,0.351,N,0.651,K,D*23
$GPGGA,121547.00,5543.71148,N,03736.59319,E,2,04,5.27,169.4,M,13.3,M,,0000*5E
$GPGSA,A,3,20,11,12,05,,,,,,,,,5.88,5.27,2.60*07
$GPGSV,6,1,22,02,30,196,,03,,,35,04,,,35,05,07,136,32*71
$GPGSV,6,2,22,06,,,37,07,,,27,09,,,37,10,,,36*74
$GPGSV,6,3,22,11,53,079,46,12,54,133,43,13,,,32,14,,,31*76
$GPGSV,6,4,22,15,,,36,19,,,31,20,24,112,34,21,,,32*43
$GPGSV,6,5,22,22,,,33,25,79,204,,26,,,30,27,,,30*44
$GPGSV,6,6,22,29,,,36,40,25,159,38*42
$GPGLL,5543.71148,N,03736.59319,E,121547.00,A,D*62
$GPRMC,121548.00,A,5543.71147,N,03736.59298,E,0.117,,110323,,,D*76
$GPVTG,,T,,M,0.117,N,0.217,K,D*25
$GPGGA,121548.00,5543.71147,N,03736.59298,E,2,04,5.27,169.3,M,13.3,M,,0000*51
$GPGSA,A,3,20,11,12,05,,,,,,,,,5.88,5.27,2.60*07
$GPGSV,6,1,22,02,30,196,,03,,,34,04,,,35,05,07,136,32*70
$GPGSV,6,2,22,06,,,36,07,,,27,09,,,37,10,,,36*75
$GPGSV,6,3,22,11,53,079,46,12,54,133,43,13,,,33,14,,,31*77
$GPGSV,6,4,22,15,,,36,19,,,31,20,24,112,34,21,,,32*43
$GPGSV,6,5,22,22,,,33,25,79,204,,26,,,30,27,,,30*44
$GPGSV,6,6,22,29,,,35,40,25,159,38*41
$GPGLL,5543.71147,N,03736.59298,E,121548.00,A,D*6A
$GPRMC,121549.00,A,5543.71145,N,03736.59297,E,0.562,,110323,,,D*7C
$GPVTG,,T,,M,0.562,N,1.040,K,D*22
$GPGGA,121549.00,5543.71145,N,03736.59297,E,2,04,5.27,169.3,M,13.3,M,,0000*5D
$GPGSA,A,3,20,11,12,05,,,,,,,,,5.88,5.27,2.60*07
$GPGSV,6,1,22,02,30,196,,03,,,34,04,,,35,05,07,136,32*70
$GPGSV,6,2,22,06,,,36,07,,,27,09,,,36,10,,,35*77
$GPGSV,6,3,22,11,53,079,46,12,54,133,43,13,,,32,14,,,31*76
$GPGSV,6,4,22,15,,,36,19,,,32,20,24,112,33,21,,,32*47
$GPGSV,6,5,22,22,,,33,25,79,204,,26,,,30,27,,,29*4C
$GPGSV,6,6,22,29,,,36,40,25,159,38*42
$GPGLL,5543.71145,N,03736.59297,E,121549.00,A,D*66
$GPRMC,121550.00,A,5543.71143,N,03736.59291,E,0.493,,110323,,,D*7B
$GPVTG,,T,,M,0.493,N,0.913,K,D*23
$GPGGA,121550.00,5543.71143,N,03736.59291,E,2,04,5.27,169.2,M,13.3,M,,0000*54
$GPGSA,A,3,20,11,12,05,,,,,,,,,5.88,5.27,2.60*07
$GPGSV,6,1,22,02,30,196,,03,,,34,04,,,35,05,07,136,32*70
$GPGSV,6,2,22,06,,,36,07,,,28,09,,,36,10,,,35*78
$GPGSV,6,3,22,11,53,079,46,12,54,133,42,13,,,32,14,,,31*77
$GPGSV,6,4,22,15,,,36,19,,,31,20,24,112,33,21,,,32*44
$GPGSV,6,5,22,22,,,33,25,79,204,,26,,,30,27,,,30*44
$GPGSV,6,6,22,29,,,36,40,25,159,38*42
$GPGLL,5543.71143,N,03736.59291,E,121550.00,A,D*6E
$GPRMC,121551.00,A,5543.71143,N,03736.59274,E,0.487,,110323,,,D*74
$GPVTG,,T,,M,0.487,N,0.902,K,D*26
$GPGGA,121551.00,5543.71143,N,03736.59274,E,2,04,5.27,169.1,M,13.3,M,,0000*5D
$GPGSA,A,3,20,11,12,05,,,,,,,,,5.88,5.27,2.60*07
$GPGSV,6,1,22,02,30,196,29,03,,,34,04,,,35,05,07,136,32*7B
$GPGSV,6,2,22,06,,,36,07,,,28,09,,,37,10,,,35*79
$GPGSV,6,3,22,11,53,079,46,12,54,133,43,13,,,32,14,,,31*76
$GPGSV,6,4,22,15,,,36,19,,,31,20,24,112,32,21,,,32*45
$GPGSV,6,5,22,22,,,33,25,79,204,,26,,,30,27,,,30*44
$GPGSV,6,6,22,29,,,36,40,25,159,39*43
$GPGLL,5543.71143,N,03736.59274,E,121551.00,A,D*64
$GPRMC,121552.00,A,5543.71144,N,03736.59243,E,0.240,,110323,,,D*79
$GPVTG,,T,,M,0.240,N,0.445,K,D*25
$GPGGA,121552.00,5543.71144,N,03736.59243,E,2,05,1.93,168.9,M,13.3,M,,0000*5E
$GPGSA,A,3,02,20,11,12,05,,,,,,,,2.55,1.93,1.67*0D
$GPGSV,6,1,22,02,30,196,29,03,,,34,04,,,35,05,07,136,32*7B
$GPGSV,6,2,22,06,,,37,07,,,28,09,,,37,10,,,35*78
$GPGSV,6,3,22,11,53,079,46,12,54,133,43,13,,,32,14,,,31*76
$GPGSV,6,4,22,15,,,36,19,,,31,20,24,112,32,21,,,32*45
$GPGSV,6,5,22,22,,,33,25,79,204,,26,,,30,27,,,30*44
$GPGSV,6,6,22,29,,,36,40,25,159,39*43
$GPGLL,5543.71144,N,03736.59243,E,121552.00,A,D*64
$GPRMC,121553.00,A,5543.71136,N,03736.59311,E,0.568,,110323,,,D*76
$GPVTG,,T,,M,0.568,N,1.053,K,D*2A
$GPGGA,121553.00,5543.71136,N,03736.59311,E,2,05,1.93,169.1,M,13.3,M,,0000*55
$GPGSA,A,3,02,20,11,12,05,,,,,,,,2.55,1.93,1.67*0D
$GPGSV,6,1,22,02,30,196,28,03,,,34,04,,,35,05,07,136,32*7A
$GPGSV,6,2,22,06,,,37,07,,,28,09,,,36,10,,,35*79
$GPGSV,6,3,22,11,53,079,46,12,54,133,42,13,,,32,14,,,32*74
$GPGSV,6,4,22,15,,,35,19,,,31,20,24,112,32,21,,,32*46
$GPGSV,6,5,22,22,,,32,25,79,204,,26,,,30,27,,,29*4D
$GPGSV,6,6,22,29,,,36,40,25,159,39*43
$GPGLL,5543.71136,N,03736.59311,E,121553.00,A,D*66
$GPRMC,121554.00,A,5543.71135,N,03736.59314,E,0.168,,110323,,,D*73
$GPVTG,,T,,M,0.168,N,0.311,K,D*2A
$GPGGA,121554.00,5543.71135,N,03736.59314,E,2,05,1.93,169.1,M,13.3,M,,0000*54
$GPGSA,A,3,02,20,11,12,05,,,,,,,,2.55,1.93,1.67*0D
$GPGSV,6,1,22,02,30,196,29,03,,,34,04,,,35,05,07,136,32*7B
$GPGSV,6,2,22,06,,,37,07,,,28,09,,,37,10,,,35*78
$GPGSV,6,3,22,11,53,079,46,12,54,133,42,13,,,33,14,,,32*75
$GPGSV,6,4,22,15,,,35,19,,,31,20,24,112,32,21,,,32*46
$GPGSV,6,5,22,22,,,33,25,79,204,,26,,,30,27,,,29*4C
$GPGSV,6,6,22,29,,,35,40,25,159,39*40
$GPGLL,5543.71135,N,03736.59314,E,121554.00,A,D*67
$GPRMC,121555.00,A,5543.71134,N,03736.59314,E,0.106,,110323,,,D*7B
$GPVTG,,T,,M,0.106,N,0.196,K,D*2F
$GPGGA,121555.00,5543.71134,N,03736.59314,E,2,05,1.93,169.1,M,13.3,M,,0000*54
$GPGSA,A,3,02,20,11,12,05,,,,,,,,2.55,1.93,1.67*0D
$GPGSV,6,1,22,02,30,196,29,03,,,33,04,,,35,05,07,136,33*7D
$GPGSV,6,2,22,06,,,36,07,,,27,09,,,36,10,,,35*77
$GPGSV,6,3,22,11,53,079,46,12,54,133,42,13,,,32,14,,,32*74
$GPGSV,6,4,22,15,,,35,19,,,31,20,24,112,31,21,,,32*45
$GPGSV,6,5,22,22,,,32,25,79,204,,26,,,30,27,,,29*4D
$GPGSV,6,6,22,29,,,34,40,25,159,39*41
$GPGLL,5543.71134,N,03736.59314,E,121555.00,A,D*67
$GPRMC,121556.00,A,5543.71136,N,03736.59284,E,0.529,,110323,,,D*7B
$GPVTG,,T,,M,0.529,N,0.980,K,D*29
$GPGGA,121556.00,5543.71136,N,03736.59284,E,2,05,1.93,168.9,M,13.3,M,,0000*54
$GPGSA,A,3,02,20,11,12,05,,,,,,,,2.55,1.93,1.67*0D
$GPGSV,6,1,22,02,30,196,29,03,,,33,04,,,35,05,07,136,34*7A
$GPGSV,6,2,22,06,,,36,07,,,36,09,,,36,10,,,35*77
$GPGSV,6,3,22,11,53,079,45,12,54,133,43,13,,,32,14,,,32*76
$GPGSV,6,4,22,15,,,34,19,,,31,20,24,112,31,21,,,31*47
$GPGSV,6,5,22,22,,,32,25,79,204,,26,,,30,27,,,29*4D
$GPGSV,6,6,22,29,,,34,40,25,159,39*41
$GPGLL,5543.71136,N,03736.59284,E,121556.00,A,D*6E
$GPRMC,121557.00,A,5543.71127,N,03736.59362,E,0.198,,110323,,,D*7D
$GPVTG,,T,,M,0.198,N,0.367,K,D*24
$GPGGA,121557.00,5543.71127,N,03736.59362,E,2,05,1.93,169.1,M,13.3,M,,0000*55
$GPGSA,A,3,02,20,11,12,05,,,,,,,,2.55,1.93,1.67*0D
$GPGSV,6,1,22,02,30,196,36,03,,,33,04,,,34,05,07,136,37*76
$GPGSV,6,2,22,06,,,35,07,,,35,09,,,35,10,,,34*75
$GPGSV,6,3,22,11,53,079,45,12,54,133,45,13,,,32,14,,,32*70
$GPGSV,6,4,22,15,,,35,19,,,32,20,24,112,33,21,,,31*47
$GPGSV,6,5,22,22,,,32,25,79,204,,26,,,31,27,,,30*44
$GPGSV,6,6,22,29,,,33,40,25,159,41*49
$GPGLL,5543.71127,N,03736.59362,E,121557.00,A,D*66
$GPRMC,121558.00,A,5543.71117,N,03736.59441,E,0.495,,110323,,,D*7F
$GPVTG,,T,,M,0.495,N,0.917,K,D*21
$GPGGA,121558.00,5543.71117,N,03736.59441,E,2,05,1.93,169.4,M,13.3,M,,0000*5A
$GPGSA,A,3,02,20,11,12,05,,,,,,,,2.55,1.93,1.67*0D
$GPGSV,6,1,22,02,30,196,36,03,,,33,04,,,34,05,07,136,37*76
$GPGSV,6,2,22,06,,,35,07,,,35,09,,,35,10,,,34*75
$GPGSV,6,3,22,11,53,079,45,12,54,133,45,13,,,31,14,,,31*70
$GPGSV,6,4,22,15,,,35,19,,,32,20,24,112,33,21,,,31*47
$GPGSV,6,5,22,22,,,31,25,79,204,,26,,,32,27,,,30*44
$GPGSV,6,6,22,29,,,32,40,25,159,41*48
$GPGLL,5543.71117,N,03736.59441,E,121558.00,A,D*6C
$GPRMC,121559.00,A,5543.71112,N,03736.59490,E,0.389,,110323,,,D*7D
$GPVTG,,T,,M,0.389,N,0.721,K,D*20
$GPGGA,121559.00,5543.71112,N,03736.59490,E,2,05,1.93,169.6,M,13.3,M,,0000*50
$GPGSA,A,3,02,20,11,12,05,,,,,,,,2.55,1.93,1.67*0D
$GPGSV,6,1,22,02,30,196,36,03,,,33,04,,,34,05,07,136,37*76
$GPGSV,6,2,22,06,,,35,07,,,35,09,,,35,10,,,35*74
$GPGSV,6,3,22,11,53,079,45,12,54,133,45,13,,,32,14,,,32*70
$GPGSV,6,4,22,15,,,34,19,,,32,20,24,112,33,21,,,31*46
$GPGSV,6,5,22,22,,,32,25,79,204,,26,,,32,27,,,30*47
$GPGSV,6,6,22,29,,,32,40,25,159,41*48
$GPGLL,5543.71112,N,03736.59490,E,121559.00,A,D*64
$GPRMC,121600.00,A,5543.71111,N,03736.59514,E,0.091,,110323,,,D*76
$GPVTG,,T,,M,0.091,N,0.169,K,D*20
$GPGGA,121600.00,5543.71111,N,03736.59514,E,2,05,1.93,169.6,M,13.3,M,,0000*51
$GPGSA,A,3,02,20,11,12,05,,,,,,,,2.55,1.93,1.67*0D
$GPGSV,6,1,22,02,30,196,36,03,,,33,04,,,34,05,07,136,35*74
$GPGSV,6,2,22,06,,,36,07,,,35,09,,,35,10,,,35*77
$GPGSV,6,3,22,11,53,079,45,12,54,133,45,13,,,31,14,,,32*73
$GPGSV,6,4,22,15,,,35,19,,,31,20,24,112,31,21,,,31*46
$GPGSV,6,5,22,22,,,32,25,79,204,,26,,,31,27,,,30*44
$GPGSV,6,6,22,29,,,33,40,25,159,41*49
$GPGLL,5543.71111,N,03736.59514,E,121600.00,A,D*65
$GPRMC,121601.00,A,5543.71107,N,03736.59537,E,0.082,,110323,,,D*73
$GPVTG,,T,,M,0.082,N,0.152,K,D*2A
$GPGGA,121601.00,5543.71107,N,03736.59537,E,2,05,1.93,169.6,M,13.3,M,,0000*56
$GPGSA,A,3,02,20,11,12,05,,,,,,,,2.55,1.93,1.67*0D
$GPGSV,6,1,22,02,30,196,37,03,,,34,04,,,33,05,07,136,36*76
$GPGSV,6,2,22,06,,,36,07,,,35,09,,,35,10,,,34*76
$GPGSV,6,3,22,11,53,079,45,12,54,133,45,13,,,31,14,,,31*70
$GPGSV,6,4,22,15,,,35,19,,,32,20,24,112,30,21,,,31*44
$GPGSV,6,5,22,22,,,32,25,79,204,,26,,,31,27,,,30*44
$GPGSV,6,6,22,29,,,33,40,25,159,41*49
$GPGLL,5543.71107,N,03736.59537,E,121601.00,A,D*62
$GPRMC,121602.00,A,5543.71100,N,03736.59594,E,0.314,,110323,,,D*72
$GPVTG,,T,,M,0.314,N,0.582,K,D*2F
$GPGGA,121602.00,5543.71100,N,03736.59594,E,2,05,1.93,169.8,M,13.3,M,,0000*55
$GPGSA,A,3,02,20,11,12,05,,,,,,,,2.55,1.93,1.67*0D
$GPGSV,6,1,22,02,30,196,38,03,,,33,04,,,32,05,07,136,36*7F
$GPGSV,6,2,22,06,,,35,07,,,34,09,,,34,10,,,33*72
$GPGSV,6,3,22,11,53,079,45,12,54,133,46,13,,,30,14,,,30*73
$GPGSV,6,4,22,15,,,35,19,,,32,20,24,112,34,21,,,31*40
$GPGSV,6,5,22,22,,,31,25,79,204,,26,,,31,27,,,30*47
$GPGSV,6,6,22,29,,,33,40,25,159,41*49
$GPGLL,5543.71100,N,03736.59594,E,121602.00,A,D*6F
$GPRMC,121603.00,A,5543.71096,N,03736.59648,E,0.175,,110323,,,D*7A
$GPVTG,,T,,M,0.175,N,0.324,K,D*20
$GPGGA,121603.00,5543.71096,N,03736.59648,E,2,05,1.93,169.9,M,13.3,M,,0000*59
$GPGSA,A,3,02,20,11,12,05,,,,,,,,2.55,1.93,1.67*0D
$GPGSV,6,1,22,02,30,196,41,03,,,31,04,,,31,05,07,136,35*73
$GPGSV,6,2,22,06,,,34,07,,,33,09,,,33,10,,,32*72
$GPGSV,6,3,22,11,53,079,45,12,54,133,50,13,,,28,14,,,29*75
$GPGSV,6,4,22,15,,,34,19,,,32,20,24,112,37,21,,,30*43
$GPGSV,6,5,22,22,,,29,25,79,204,,26,,,31,27,,,31*4F
$GPGSV,6,6,22,29,,,32,40,25,159,37*49
$GPGLL,5543.71096,N,03736.59648,E,121603.00,A,D*62
$GPRMC,121604.00,A,5543.71091,N,03736.59699,E,0.064,,110323,,,D*77
$GPVTG,,T,,M,0.064,N,0.118,K,D*2C
$GPGGA,121604.00,5543.71091,N,03736.59699,E,2,05,1.93,170.1,M,13.3,M,,0000*55
$GPGSA,A,3,02,20,11,12,05,,,,,,,,2.55,1.93,1.67*0D
$GPGSV,6,1,22,02,30,196,42,03,,,30,04,,,30,05,07,136,36*73
$GPGSV,6,2,22,06,,,34,07,,,32,09,,,32,10,,,30*70
$GPGSV,6,3,22,11,53,079,45,12,54,133,50,13,,,26,14,,,28*7A
$GPGSV,6,4,22,15,,,33,19,,,32,20,24,112,39,21,,,30*4A
$GPGSV,6,5,22,22,,,27,25,79,204,,26,,,32,27,,,31*42
$GPGSV,6,6,22,29,,,32,40,25,159,38*46
$GPGLL,5543.71091,N,03736.59699,E,121604.00,A,D*6E
$GPRMC,121605.00,A,5543.71087,N,03736.59744,E,0.146,,110323,,,D*71
$GPVTG,,T,,M,0.146,N,0.270,K,D*20
$GPGGA,121605.00,5543.71087,N,03736.59744,E,2,05,1.93,170.2,M,13.3,M,,0000*51
$GPGSA,A,3,02,20,11,12,05,,,,,,,,2.55,1.93,1.67*0D
$GPGSV,6,1,22,02,30,196,42,03,,,30,04,,,29,05,07,136,36*7B
$GPGSV,6,2,22,06,,,34,07,,,31,09,,,32,10,,,30*73
$GPGSV,6,3,22,11,53,079,45,12,54,133,50,13,,,25,14,,,27*76
$GPGSV,6,4,22,15,,,33,19,,,32,20,24,112,39,21,,,31*4B
$GPGSV,6,5,22,22,,,26,25,79,204,,26,,,32,27,,,32*40
$GPGSV,6,6,22,29,,,32,40,25,159,38*46
$GPGLL,5543.71087,N,03736.59744,E,121605.00,A,D*69
$GPRMC,121606.00,A,5543.71082,N,03736.59779,E,0.123,,110323,,,D*7A
$GPVTG,,T,,M,0.123,N,0.229,K,D*2F
$GPGGA,121606.00,5543.71082,N,03736.59779,E,2,05,1.93,170.2,M,13.3,M,,0000*59
$GPGSA,A,3,02,20,11,12,05,,,,,,,,2.55,1.93,1.67*0D
$GPGSV,6,1,22,02,30,196,42,03,,,29,04,,,29,05,07,136,36*73
$GPGSV,6,2,22,06,,,34,07,,,31,09,,,32,10,,,31*72
$GPGSV,6,3,22,11,53,079,45,12,54,133,50,13,,,25,14,,,27*76
$GPGSV,6,4,22,15,,,34,19,,,32,20,24,112,39,21,,,30*4D
$GPGSV,6,5,22,22,,,25,25,79,204,,26,,,32,27,,,31*40
$GPGSV,6,6,22,29,,,32,40,25,159,38*46
$GPGLL,5543.71082,N,03736.59779,E,121606.00,A,D*61
$GPRMC,121607.00,A,5543.71074,N,03736.59824,E,0.272,,110323,,,D*72
$GPVTG,,T,,M,0.272,N,0.503,K,D*27
$GPGGA,121607.00,5543.71074,N,03736.59824,E,2,05,1.93,170.3,M,13.3,M,,0000*57
$GPGSA,A,3,02,20,11,12,05,,,,,,,,2.55,1.93,1.67*0D
$GPGSV,6,1,22,02,30,196,42,03,,,30,04,,,29,05,07,136,37*7A
$GPGSV,6,2,22,06,,,33,07,,,31,09,,,32,10,,,31*75
$GPGSV,6,3,22,11,53,079,45,12,54,133,50,13,,,25,14,,,27*76
$GPGSV,6,4,22,15,,,33,19,,,31,20,24,112,39,21,,,30*49
$GPGSV,6,5,22,22,,,30,25,79,204,,26,-2,304,31,27,,,31*6F
$GPGSV,6,6,22,29,,,32,40,25,159,38*46
$GPGLL,5543.71074,N,03736.59824,E,121607.00,A,D*6E
$GPRMC,121608.00,A,5543.71071,N,03736.59851,E,0.023,,110323,,,D*7C
$GPVTG,,T,,M,0.023,N,0.043,K,D*20
$GPGGA,121608.00,5543.71071,N,03736.59851,E,2,05,1.93,170.3,M,13.3,M,,0000*5F
$GPGSA,A,3,02,20,11,12,05,,,,,,,,2.56,1.93,1.67*0E
